state,fips state code,tribal name,fips code,county,eis facility id,program system code,agency facility id,company name,site name,primary naics code,facility source type,site latitude,site longitude,facility status,facility status year,eis unit id,agency unit id,unit type,unit description,design capacity,design capacity uom,unit status,unit status year,permit status start year,permit status end year,reporting period,emissions operating type,pollutant code,pollutant desc,total emissions,emissions uom,data set
SC,45,,45007,Anderson,4075711,SCDHEC,0200-0144,Santee Cooper,SANTEE COOPER RAINEY,221112,Electricity Generation via Combustion,34.347841,-82.775251,OP,2014,69627413,2,Turbine,SIMPLE CYCLE TURBINES,1700,E6BTU/HR,OP,2014,,,A,R,NOX,Nitrogen Oxides,317.943,TON,2023EPA_EGU
SC,45,,45007,Anderson,4948311,SCDHEC,0200-0004,"Duke Energy, LLC",DUKE ENERGY CAROLINAS LLC LEE STEAM STAT,221112,Electricity Generation via Combustion,34.602373,-82.435267,OP,2014,127001413,14,Combined Cycle (Boiler/Gas Turbine),CCCT2 - Combined Cycle Unit with Duct - Fired Heat Recovery Steam Generator,2880,E6BTU/HR,OP,2018,,,A,R,NOX,Nitrogen Oxides,99.995,TON,2023EPA_EGU
OR,41,,41009,Columbia,7393911,ORDEQ,May-20,Portland General Electric Company,Beaver Plant/Port Westward I Plant,221112,Electricity Generation via Combustion,46.1765,-123.1739,OP,1978,68311713,PWEU1,Combined Cycle (Boiler/Gas Turbine),Turbine,198,E6BTU/HR,OP,,,,A,R,NOX,Nitrogen Oxides,86.188,TON,2023EPA_EGU
CA,6,,6059,Orange,5905811,CARB,3.01026E+11,"AES HUNTINGTON BEACH, LLC","AES HUNTINGTON BEACH, LLC",221112,Electricity Generation via Combustion,33.6446,-117.9782,OP,2008,139958013,20,Combined Cycle (Boiler/Gas Turbine),CT-2,2400,E6BTU/HR,OP,,,,A,R,NOX,Nitrogen Oxides,34.276,TON,2023EPA_EGU
PA,42,,42059,Greene,21255111,PADEP,420590004,,HILLTOP ENERGY CENTER LLC/CARMICHAELS,221112,Electricity Generation via Combustion,39.89306,-79.93013,OP,,156397913,101,Turbine,COMBUSTION TURBINE UNIT #1,3430,E6BTU/HR,OP,2023,,,A,R,NOX,Nitrogen Oxides,63.23,TON,2023EPA_EGU
VA,51,,51061,Fauquier,6744911,VADEQ,40961,Dominion - Remington CT Station,Dominion - Remington CT Station,221112,Electricity Generation via Combustion,38.5447,-77.7707,OP,2008,13418813,3,Turbine,"Unit 3 - Simple Cycle CT 1761 MMbtu/hr natural gas, 1910 MMbtu/hr No. 2 Fuel Oil",1910,E6BTU/HR,OP,,,,A,R,NOX,Nitrogen Oxides,9.786,TON,2023EPA_EGU
MS,28,,28067,Jones,7139511,MSDEQ,2806700035,AI005099,"COOPERATIVE ENERGY, MOSELLE GENERATING P",221112,Electricity Generation via Combustion,31.52835,-89.29972,OP,2008,14101713,AA-005,Turbine,NG/#2 TURBINE 1547MMBTU,1550,E6BTU/HR,OP,,,,A,R,NOX,Nitrogen Oxides,25.429,TON,2023EPA_EGU
MS,28,,28067,Jones,7139511,MSDEQ,2806700035,AI005099,"COOPERATIVE ENERGY, MOSELLE GENERATING P",221112,Electricity Generation via Combustion,31.52835,-89.29972,OP,2008,99118313,AA-011,Turbine,1527MMBTU TURBINE/HRSG7,1530,E6BTU/HR,OP,,,,A,R,NOX,Nitrogen Oxides,24.64,TON,2023EPA_EGU
AR,5,,5069,Jefferson,893911,ARDEQ,506900110,"Entergy Arkansas, LLC",ENTERGY ARK-WHITE BLUFF,221112,Electricity Generation via Combustion,34.4231,-92.1398,OP,2010,46642213,2,Boiler,UNIT 2 COAL/FUEL OIL BOIL,8950,E6BTU/HR,OP,2010,,,A,R,NOX,Nitrogen Oxides,2021.159,TON,2023EPA_EGU
CA,6,,6077,San Joaquin,1405711,CARB,3914302697,NORTHERN CALIFORNIA POWER,NORTHERN CALIFORNIA POWER,221111,Electricity Generation via Combustion,38.088,-121.3871,OP,2008,43607613,1,Turbine,49 MW NATURAL GAS TURBINE ENGINE,463,E6BTU/HR,OP,,,,A,R,NOX,Nitrogen Oxides,0.494,TON,2023EPA_EGU
CA,6,,6077,San Joaquin,14090111,CARB,3914304940,MODESTO IRRIGATION DISTRICT,MODESTO IRRIGATION DISTRICT,221118,Electricity Generation via Combustion,37.7311,-121.1253,OP,,85018813,2,Unclassified,47.5 MW POWER GENERATING SYSTEM,500,E6BTU/HR,OP,,,,A,R,NOX,Nitrogen Oxides,0.258,TON,2023EPA_EGU
MA,25,,25001,Barnstable,18997011,MADEP,1201180,CANAL 3 GENERATING LLC,CANAL 3 GENERATING LLC,221112,Electricity Generation via Combustion,41.770488,-70.509443,OP,2020,137478113,2,Turbine,"GE COMBUSTION TURBINE GENERATOR EU 10 GAS,  ULSD",3471,E6BTU/HR,OP,,,,A,R,NOX,Nitrogen Oxides,0.139,TON,2023EPA_EGU
AZ,4,,4021,Pinal,11310611,Pinal,246,Salt River Project Agricultural Improvement & Power,Coolidge Generating Station,221112,Electricity Generation via Combustion,32.916,-111.5042,OP,2010,118549713,4744,Turbine,Combustion Turbine Electricity Generation - CT11,48,E6BTU/HR,OP,,,,A,R,NOX,Nitrogen Oxides,5.172,TON,2023EPA_EGU
IL,17,,17021,Christian,1929211,ILEPA,021814AAB,Kincaid Generation LLC,Kincaid Generation LLC,221112,Electricity Generation via Combustion,39.590599,-89.496613,OP,2008,41602913,8,Boiler,Boiler unit #1,6109,E6BTU/HR,OP,,,,A,R,NOX,Nitrogen Oxides,166.572,TON,2023EPA_EGU
IN,18,,18097,Marion,4885311,INDEM,34,Na,Citizens Thermal,221330,Electricity Generation via Combustion,39.7628,-86.1668,OP,2019,100805413,12,Boiler,Boiler #12,382,E6BTU/HR,OP,2013,,,A,R,NOX,Nitrogen Oxides,71.564,TON,2023EPA_EGU
TX,48,,48469,Victoria,18974111,TXCEQ,50,TRES CITY POWER LLC,VICTORIA CITY PEAKING FACILITY,221112,Electricity Generation via Combustion,28.785278,-97.009167,OP,2018,136703813,1,Turbine,COMBUSTION TURBINE,473,E6BTU/HR,OP,2019,,,A,R,NOX,Nitrogen Oxides,1.575,TON,2023EPA_EGU
TX,48,,48469,Victoria,6497211,TXCEQ,3,VICTORIA WLE LP,VICTORIA POWER STATION,221112,Electricity Generation via Combustion,28.7891,-97.0106,OP,2010,71675313,14,Turbine,VIC7 COMBINED CYCLE COMB. TURBINE (INCLDS FIRED HR,2350,E6BTU/HR,OP,2008,,,A,R,NOX,Nitrogen Oxides,60.463,TON,2023EPA_EGU
NY,36,,36037,Genesee,8462711,NYDEC,8180200045,SENECA POWER PARTNERS LP,BATAVIA POWER PLANT,221112,Electricity Generation via Combustion,42.982684,-78.159201,OP,2008,1616913,1CMBTN,Turbine,EMISSION UNIT,38,MW,OP,,,,A,R,NOX,Nitrogen Oxides,3.505,TON,2023EPA_EGU
OH,39,,39037,Darke,8257111,OHEPA,819070237,"Buckeye Power, Inc",Buckeye Power Greenville Station (0819070237),221112,Electricity Generation via Combustion,40.0756,-84.6156,OP,2000,36613,B007,Turbine,"269.71 mmBtu/hr natural gas/No. 2 oil, simple cycle combustion turbine with water injection nitr...",25,MW,OP,,,,A,R,NOX,Nitrogen Oxides,4.085,TON,2023EPA_EGU
OH,39,,39037,Darke,8257111,OHEPA,819070237,"Buckeye Power, Inc",Buckeye Power Greenville Station (0819070237),221112,Electricity Generation via Combustion,40.0756,-84.6156,OP,2000,36813,B002,Turbine,"269.71 mmBtu/hr natural gas/No. 2 oil, simple cycle combustion turbine with water injection nitr...",25,MW,OP,,,,A,R,NOX,Nitrogen Oxides,4.545,TON,2023EPA_EGU
ID,16,,16039,Elmore,8355111,IDDEQ,3900024,Idaho Power Company,IDAHO POWER CO - EVANDER ANDREWS COMPLEX,221112,Electricity Generation via Combustion,43.1794,-115.7328,OP,2022,418513,10,Turbine,W251B12A Gas Turbine,750,E6BTU/HR,OP,2021,,,A,R,NOX,Nitrogen Oxides,18.665,TON,2023EPA_EGU
MI,26,,26039,Crawford,4187811,MIDEQ,N2388,Grayling Generating Station LTD PTNR,GRAYLING GENERATING STATION LTD PTNR,221118,Electricity Generation via Combustion,44.605,-84.6903,OP,2020,35897313,EU0008,Boiler,"The electric generation group consists of the wood/bark boiler with the following equipment, gas bur",41,MW,OP,2020,,,A,R,NOX,Nitrogen Oxides,134.052,TON,2023EPA_EGU
TX,48,,48039,Brazoria,5632311,TXCEQ,135,SWEENY COGENERATION LP,SWEENY COGENERATION FACILITY,221330,Steam/Heating Facility,29.0724,-95.7455,OP,1996,21217913,14,Turbine,GAS TURBINE & H.R.S.G. 4,2070,E6BTU/HR,OP,2001,,,A,R,NOX,Nitrogen Oxides,90.313,TON,2023EPA_EGU
WI,55,,55039,Fond du Lac,6746711,WIDNR,420101660,Wisconsin Power & Light Company,WPL-SOUTH FOND DU LAC COMBUSTION TURBINE SITE,221112,Electricity Generation via Combustion,43.7353,-88.4968,OP,2023,13172013,B03,Turbine,ONE SIMPLE CYCLE COMBUSTION TURBINE  EI COMBUSTION TURBINE UNIT 3,1350,E6BTU/HR,OP,2021,,,A,R,NOX,Nitrogen Oxides,3.331,TON,2023EPA_EGU
CO,8,,8041,El Paso,4385111,CODPHE,CO0000000804100897,Fountain Valley Power LLC,FOUNTAIN VALLEY POWER - BOCA RATON,221112,Electricity Generation via Combustion,38.5569,-104.6875,OP,2008,36325313,041-0897-001,Turbine,TURBINE #1,336,E6BTU/HR,OP,,,,A,R,NOX,Nitrogen Oxides,6.922,TON,2023EPA_EGU
CO,8,,8041,El Paso,4385111,CODPHE,CO0000000804100897,Fountain Valley Power LLC,FOUNTAIN VALLEY POWER - BOCA RATON,221112,Electricity Generation via Combustion,38.5569,-104.6875,OP,2008,68597613,041-0897-005,Turbine,TURBINE #5,336,E6BTU/HR,OP,,,,A,R,NOX,Nitrogen Oxides,7.121,TON,2023EPA_EGU
KY,21,,21041,Carroll,5198511,KYDAQ,2104100010,Kentucky Utilities Company,KY Utilities Co - Ghent Station,221121,Electricity Generation via Combustion,38.7497,-85.035,OP,2008,25720413,3,Boiler,"Unit 3 Boiler (EU 03) Dry Bottom, Wall-Fired Boil",5500,E6BTU/HR,OP,,,,A,R,NOX,Nitrogen Oxides,2199.289,TON,2023EPA_EGU
KY,21,,21041,Carroll,5198511,KYDAQ,2104100010,Kentucky Utilities Company,KY Utilities Co - Ghent Station,221121,Electricity Generation via Combustion,38.7497,-85.035,OP,2008,25720813,4,Boiler,"Unit 4 Boiler (EU 04) Dry Bottom, Wall-Fired Cap",5500,E6BTU/HR,OP,,,,A,R,NOX,Nitrogen Oxides,700.995,TON,2023EPA_EGU
NM,35,,35045,San Juan,13646111,NMED,3535,Farmington Electric Utility Systems,Bluffview Power Plant,221112,Electricity Generation via Combustion,36.714333,-108.214444,OP,2003,157585613,EQPT10,Turbine,Turbine - Combustion Turbine Generator,338,E6BTU/HR,OP,2023,,,A,R,NOX,Nitrogen Oxides,81.787,TON,2023EPA_EGU
CO,8,,8123,Weld,3551511,CODPHE,CO0000000812300023,Public Service Company Of Colorado,PUBLIC SERVICE CO - FORT SAINT VRAIN PLT,221112,Electricity Generation via Combustion,40.2461,-104.8742,OP,2008,36793013,123-0023-005,Turbine,COMBUSTION TURBINE T003,1823,E6BTU/HR,OP,,,,A,R,NOX,Nitrogen Oxides,138.637,TON,2023EPA_EGU
MI,26,,26115,Monroe,7888311,MIDEQ,B2816,DTE Electric Company,DTE Electric Company - Monroe Power Plant,221112,Electricity Generation via Combustion,41.8887,-83.3437,OP,2020,3285413,EU0062,Boiler,Unit No. 1,7620,E6BTU/HR,OP,2020,,,A,R,NOX,Nitrogen Oxides,752.313,TON,2023EPA_EGU
WI,55,,55131,Washington,5235111,WIDNR,267006190,Wisconsin Electric Power Company,WISCONSIN ELECTRIC POWER COMPANY D/B/A WE ENERGIES-GERMANTOWN STATION,221112,Electricity Generation via Combustion,43.1956,-88.1498,OP,2023,25374313,P37,Turbine,COMBUSTION TURBINE GENERATOR  EI: TURBINE GENERATOR,632,E6BTU/HR,OP,2012,,,A,R,NOX,Nitrogen Oxides,3.803,TON,2023EPA_EGU
WI,55,,55131,Washington,5235111,WIDNR,267006190,Wisconsin Electric Power Company,WISCONSIN ELECTRIC POWER COMPANY D/B/A WE ENERGIES-GERMANTOWN STATION,221112,Electricity Generation via Combustion,43.1956,-88.1498,OP,2023,25374613,P33,Turbine,COMBUSTION TURBINE GENERATOR  EI: TURBINE GENERATOR,632,E6BTU/HR,OP,2012,,,A,R,NOX,Nitrogen Oxides,2.49,TON,2023EPA_EGU
OK,40,,40133,Seminole,8007311,OKDEQ,1210,OG AND E,SEMINOLE GENERATING STATION,221112,Electricity Generation via Combustion,34.96644,-96.72577,OP,2008,5014013,9951,Boiler,Electric Power Generation Boiler - Unit NO 3,5500,E6BTU/HR,OP,2002,,,A,R,NOX,Nitrogen Oxides,603.311,TON,2023EPA_EGU
CA,6,,6071,San Bernardino,13908211,CARB,3605181849,HIGH DESERT POWER PROJECT,HIGH DESERT POWER PROJECT,221112,Electricity Generation via Combustion,34.5953,-117.3647,OP,,85487713,2,Turbine,UNIT 2 COMB. TURBINE W/DUCT BURNER,190,MW,OP,,,,A,R,NOX,Nitrogen Oxides,33.535,TON,2023EPA_EGU
FL,12,,12105,Polk,751911,FLDEP,1050233,Tampa Electric Company,TAMPA ELECTRIC COMPANY-POLK,221112,Electricity Generation via Combustion,27.727015,-81.989774,OP,2008,111793813,21,Turbine,Unit 3H Nominal 165 MW Combustion Turbine w/ Duct-fired HRSG,1950,E6BTU/HR,OP,2014,,,A,R,NOX,Nitrogen Oxides,38.687,TON,2023EPA_EGU
FL,12,,12105,Polk,552011,FLDEP,1050234,Progress Energy Florida,"DUKE ENERGY FLORIDA, LLC",221112,Electricity Generation via Combustion,27.78869,-81.871226,OP,2008,67213913,19,Turbine,"Power Block 4, CT 4B",2010,E6BTU/HR,OP,2008,,,A,R,NOX,Nitrogen Oxides,45.383,TON,2023EPA_EGU
FL,12,,12105,Polk,643111,FLDEP,1050004,Lakeland Electric,"C.D. MCINTOSH, JR. POWER PLANT",221112,Electricity Generation via Combustion,28.0816,-81.9253,OP,2018,138587313,34,Turbine,Gas Turbine Peaking Unit 2,1780,E6BTU/HR,OP,,,,A,R,NOX,Nitrogen Oxides,13.075,TON,2023EPA_EGU
WI,55,,55025,Dane,9018111,WIDNR,113151500,,MG&E WEST CAMPUS COGENERATION FTY,221112,Electricity Generation via Combustion,43.075,-89.4243,OP,2023,54743013,P02,Combined Cycle (Boiler/Gas Turbine),COMBUSTION TURBINE GENERATOR,733,E6BTU/HR,OP,2017,,,A,R,NOX,Nitrogen Oxides,10.418,TON,2023EPA_EGU
FL,12,,12005,Bay,554911,FLDEP,50014,Gulf Power Company,FLORIDA POWER &  LIGHT COMPANY,221112,Electricity Generation via Combustion,30.268389,-85.699944,OP,2008,48230613,5,Turbine,UNIT 5:  170 MW CT2 with HRSG and duct burner,2350,E6BTU/HR,OP,2008,,,A,R,NOX,Nitrogen Oxides,208.102,TON,2023EPA_EGU
MI,26,,26077,Kalamazoo,5620911,MIDEQ,N6731,CMS Generation Michigan Power L.L.C.,CMS Generation Kalamazoo River Generating Station,221112,Electricity Generation via Combustion,42.280498,-85.492956,OP,2020,19998413,EU0002,Turbine,GE Frame 7E Combustion Turbine nominally rated at 86 MW.  The listed heat input design capacity is b,1200,E6BTU/HR,OP,2020,,,A,R,NOX,Nitrogen Oxides,51.978,TON,2023EPA_EGU
NM,35,,35013,Dona Ana,7581811,NMED,122,El Paso Electric Company,Rio Grande Generating Station,221112,Electricity Generation via Combustion,31.8047,-106.5472,OP,2001,82571913,EQPT2,Boiler,Boiler - Babcock & Wilcox Boiler#7,590,E6BTU/HR,OP,2023,,,A,R,NOX,Nitrogen Oxides,52.307,TON,2023EPA_EGU
IL,17,,17103,Lee,10824211,ILEPA,103814AAC,,Invenergy Nelson LLC,221112,Electricity Generation via Combustion,41.77466,-89.606565,OP,2012,105888113,2,Turbine,Turbine CT-2 - 2166 mmBTU/hr,2516,E6BTU/HR,OP,2012,,,A,R,NOX,Nitrogen Oxides,80.807,TON,2023EPA_EGU
CA,6,,6065,Riverside,10115711,CARB,3.31526E+11,"WILDFLOWER ENERGY LP/INDIGOGEN., LLC","WILDFLOWER ENERGY LP/INDIGOGEN., LLC",221112,Electricity Generation via Combustion,33.910252,-116.553105,OP,2008,119847113,10,Turbine,"GAS TURBINE, UNIT 400",504,E6BTU/HR,OP,,,,A,R,NOX,Nitrogen Oxides,0.999,TON,2023EPA_EGU
CA,6,,6065,Riverside,13908711,CARB,3305182262,BLYTHE ENERGY INC,"BLYTHE ENERGY, INC.",221112,Electricity Generation via Combustion,33.6158,-114.6864,OP,,85674413,27954,Turbine,CT 12/DB 12,1900,E6BTU/HR,OP,,,,A,R,NOX,Nitrogen Oxides,36.168,TON,2023EPA_EGU
OH,39,,39143,Sandusky,15483111,OHEPA,372030241,,AMP Fremont Energy Center (0372030241),221112,Electricity Generation via Combustion,41.3771,-83.1615,OP,2000,96948313,P002,Turbine,Combined Cycle Turbine & Duct Burner,2810,E6BTU/HR,OP,,,,A,R,NOX,Nitrogen Oxides,57.719,TON,2023EPA_EGU
IN,18,,18153,Sullivan,8396211,INDEM,5,Na,HOOSIER ENERGY REC  INC    MEROM GENERA,221112,Electricity Generation via Combustion,39.0694,-87.5108,OP,2020,1479713,1,Boiler,UNIT 1,5800,E6BTU/HR,OP,2020,,,A,R,NOX,Nitrogen Oxides,711.958,TON,2023EPA_EGU
TX,48,,48157,Fort Bend,3968411,TXCEQ,5,NRG TEXAS POWER LLC,WA PARISH ELECTRIC GENERATING STATION,221112,Electricity Generation via Combustion,29.478295,-95.635775,OP,1979,34521913,5,Boiler,UNIT 4 BOILER,2000,E6BTU/HR,OP,1981,,,A,R,NOX,Nitrogen Oxides,513.774,TON,2023EPA_EGU
KY,21,,21161,Mason,7335511,KYDAQ,2116100009,,East KY Power Coop - Spurlock Station,221112,Electricity Generation via Combustion,38.700049,-83.817613,OP,2008,86759113,EU17,Boiler,"2800 mmbtu/hr coal fired group one boiler, Circula",2800,E6BTU/HR,OP,,,,A,R,NOX,Nitrogen Oxides,500.744,TON,2023EPA_EGU
TN,47,,47161,Stewart,4979311,TNDEC,81-0011,TVA CUMBERLAND FOSSIL PLANT,TVA CUMBERLAND FOSSIL PLANT,221112,Electricity Generation via Combustion,36.3903,-87.6539,OP,2008,30040513,1,Boiler,BOILER 1,14100,E6BTU/HR,OP,,,,A,R,NOX,Nitrogen Oxides,1573.387,TON,2023EPA_EGU
TN,47,,47161,Stewart,4979311,TNDEC,81-0011,TVA CUMBERLAND FOSSIL PLANT,TVA CUMBERLAND FOSSIL PLANT,221112,Electricity Generation via Combustion,36.3903,-87.6539,OP,2008,30040713,2,Boiler,BOILER 2,14100,E6BTU/HR,OP,,,,A,R,NOX,Nitrogen Oxides,1903.614,TON,2023EPA_EGU
OK,40,,40101,Muskogee,8506011,OKDEQ,1209,OG AND E,MUSKOGEE GENERATING STATION,221112,Electricity Generation via Combustion,35.76054,-95.28731,OP,2008,535313,9946,Boiler,Electric Power Generation Boiler - Unit NO 6 Combustion Engineering AA-B0001,5480,E6BTU/HR,OP,2002,,,A,R,NOX,Nitrogen Oxides,1199.732,TON,2023EPA_EGU
WI,55,,55117,Sheboygan,9012411,WIDNR,460067190,,WPL - SHEBOYGAN FALLS ENERGY FACILITY,221112,Electricity Generation via Combustion,43.75182,-87.8783,OP,2023,54825913,P02,Turbine,SIMPLE CYCLE COMBUSTION TURBINE,1850,E6BTU/HR,OP,2021,,,A,R,NOX,Nitrogen Oxides,37.767,TON,2023EPA_EGU
MA,25,,25009,Essex,5090111,MADEP,1190015,PEABODY MUNICIPAL LIGHT PLANT,PEABODY MUNICIPAL LIGHT PLANT,221112,Electricity Generation via Combustion,42.541629,-70.927257,OP,2020,87331513,2,Turbine,GENERAL ELECTRIC LM5000 DUAL FUEL GAS TURBINE,485.9,E6BTU/HR,OP,1990,,,A,R,NOX,Nitrogen Oxides,6.374,TON,2023EPA_EGU
AL,1,,1081,Lee,953511,ADEM,36,Georgia Power Company,Southern Power Company,221112,Electricity Generation via Combustion,32.6073,-85.0973,OP,2008,83316613,X001-3A,Combined Cycle (Boiler/Gas Turbine),Unit 3A,2120,E6BTU/HR,OP,,,,A,R,NOX,Nitrogen Oxides,70.289,TON,2023EPA_EGU
AL,1,,1081,Lee,953511,ADEM,36,Georgia Power Company,Southern Power Company,221112,Electricity Generation via Combustion,32.6073,-85.0973,OP,2008,83316713,X001-3B,Combined Cycle (Boiler/Gas Turbine),Unit 3B,2120,E6BTU/HR,OP,,,,A,R,NOX,Nitrogen Oxides,70.608,TON,2023EPA_EGU
FL,12,,12081,Manatee,537911,FLDEP,810010,Florida Power & Light Company,FLORIDA POWER & LIGHT (PMT),221112,Electricity Generation via Combustion,27.6056,-82.3463,OP,2008,48407613,2,Boiler,"Fossil Fuel Steam Generator, Unit 2-Phase II Acid Rain Unit",8650,E6BTU/HR,OP,2008,,,A,R,NOX,Nitrogen Oxides,4.732,TON,2023EPA_EGU
FL,12,,12081,Manatee,537911,FLDEP,810010,Florida Power & Light Company,FLORIDA POWER & LIGHT (PMT),221112,Electricity Generation via Combustion,27.6056,-82.3463,OP,2008,67277013,8,Turbine,Unit 3D Combustion Turbine with HRSG,1980,E6BTU/HR,OP,2008,,,A,R,NOX,Nitrogen Oxides,49.831,TON,2023EPA_EGU
PA,42,,42003,Allegheny,2990311,PAACHD,4200300580,ALLEGHENY ENERGY SUPPLY,Springdale Energy LLC,221121,Electricity Generation via Combustion,40.54417,-79.76722,OP,2008,38213013,1,Turbine,UNIT 1,100,E6BTU/HR,OP,,,,A,R,NOX,Nitrogen Oxides,23.934,TON,2023EPA_EGU
SC,45,,45003,Aiken,5045611,SCDHEC,0080-0011,South Carolina Electric & Gas Company,URQUHART STATION,221112,Electricity Generation via Combustion,33.434108,-81.911321,OP,2014,32105013,11,Turbine,CT-4 NG/2OIL 58.9MW,435,E6BTU/HR,OP,2014,,,A,R,NOX,Nitrogen Oxides,0.808,TON,2023EPA_EGU
PA,42,,42121,Venango,3880211,PADEP,421210043,HANDSOME LAKE ENERGY LLC,HANDSOME LAKE ENERGY LLC/KENNERDELL,221112,Electricity Generation via Combustion,41.2908,-79.8061,OP,2008,37451113,5B,Turbine,COMBUSTION TURBINE UNIT 5B (529 MMBTU/HR),264,E6BTU/HR,OP,2023,,,A,R,NOX,Nitrogen Oxides,9.159,TON,2023EPA_EGU
PA,42,,42121,Venango,3880211,PADEP,421210043,HANDSOME LAKE ENERGY LLC,HANDSOME LAKE ENERGY LLC/KENNERDELL,221112,Electricity Generation via Combustion,41.2908,-79.8061,OP,2008,37451213,1A,Turbine,COMBUSTION TURBINE UNIT 1A (529 MMBTU/HR),264,E6BTU/HR,OP,2023,,,A,R,NOX,Nitrogen Oxides,14.23,TON,2023EPA_EGU
MS,28,,28007,Attala,7036511,MSDEQ,2800700032,AI012502,ENTERGY MISSISSIPPI ATTALA PLANT,221112,Electricity Generation via Combustion,33.0153,-89.676389,OP,2008,14202213,AA-001,Turbine,1756.6MMBTUH NG TURBINE,1760,E6BTU/HR,OP,,,,A,R,NOX,Nitrogen Oxides,55.407,TON,2023EPA_EGU
MS,28,,28007,Attala,7036511,MSDEQ,2800700032,AI012502,ENTERGY MISSISSIPPI ATTALA PLANT,221112,Electricity Generation via Combustion,33.0153,-89.676389,OP,2008,14202313,AA-002,Turbine,1756.6MMBTUH NG TURBINE,1760,E6BTU/HR,OP,,,,A,R,NOX,Nitrogen Oxides,58.457,TON,2023EPA_EGU
MD,24,,24009,Calvert,5169611,MDDOE,009-0021,"Dominion Energy Cove Point LNG, LP","Dominion Energy Cove Point LNG, LP",486210,,38.3856,-76.4099,OP,2019,87922113,009-0021-5-0050,Boiler,"248 Boiler - Gas Fuel Fired, All Types/Sizes",282,E6BTU/HR,OP,2024,,,A,R,NOX,Nitrogen Oxides,2.662,TON,2023EPA_EGU
TX,48,,48035,Bosque,5617311,TXCEQ,2,CALPINE BOSQUE ENERGY CENTER LLC,BOSQUE COUNTY POWER PLANT WHITNEY,221112,Electricity Generation via Combustion,31.857467,-97.358119,OP,1999,21254913,1,Turbine,GAS TURBINE UNIT 1,1910,E6BTU/HR,OP,2000,,,A,R,NOX,Nitrogen Oxides,63.779,TON,2023EPA_EGU
TX,48,,48035,Bosque,5617311,TXCEQ,2,CALPINE BOSQUE ENERGY CENTER LLC,BOSQUE COUNTY POWER PLANT WHITNEY,221112,Electricity Generation via Combustion,31.857467,-97.358119,OP,1999,21255113,2,Turbine,GAS TURBINE UNIT 2,1910,E6BTU/HR,OP,2000,,,A,R,NOX,Nitrogen Oxides,70.341,TON,2023EPA_EGU
IL,17,,17119,Madison,7338011,ILEPA,119105AAA,Union Electric Company - Venice,Ameren Missouri Venice Energy Ctr,221112,Electricity Generation via Combustion,38.664501,-90.17821,OP,2009,60146913,18,Turbine,Turbine CT04,2121,E6BTU/HR,OP,,,,A,R,NOX,Nitrogen Oxides,1.677,TON,2023EPA_EGU
PA,42,,42123,Warren,3893511,PADEP,421230004,NRG REMA LLC,WARREN GENERATION LLC/WARREN COMBUSTION TURBINE,221112,Electricity Generation via Combustion,41.83609,-79.18893,OP,2008,37450213,35,Turbine,COMBUSTION TURBINE,1250,E6BTU/HR,OP,2023,,,A,R,NOX,Nitrogen Oxides,70.672,TON,2023EPA_EGU
KY,21,,21127,Lawrence,6019911,KYDAQ,2112700040,"Dynegy, Inc",Riverside Generating Co LLC,221112,Electricity Generation via Combustion,38.191734,-82.604615,OP,2008,86769313,4,Turbine,(GTG-401) Natural Gas-Fired Turbine for Electric G,2130,E6BTU/HR,OP,,,,A,R,NOX,Nitrogen Oxides,30.533,TON,2023EPA_EGU
KY,21,,21127,Lawrence,6019911,KYDAQ,2112700040,"Dynegy, Inc",Riverside Generating Co LLC,221112,Electricity Generation via Combustion,38.191734,-82.604615,OP,2008,86769413,2,Turbine,(GTG-201) Natural Gas-Fired Turbine for Electric G,2130,E6BTU/HR,OP,,,,A,R,NOX,Nitrogen Oxides,34.057,TON,2023EPA_EGU
MA,25,,25025,Suffolk,7240911,MADEP,1190128,"CONSTELLATION MYSTIC POWER, LLC",MYSTIC STATION,221112,Electricity Generation via Combustion,42.3905,-71.0673,OP,2020,7503613,23,Combined Cycle (Boiler/Gas Turbine),GAS TURBINE UNIT #81 - MITSUBISHI 501G,2955,E6BTU/HR,OP,2000,,,A,R,NOX,Nitrogen Oxides,9.227,TON,2023EPA_EGU
MA,25,,25025,Suffolk,6401511,MADEP,1190507,VICINITY ENERGY LLC,VICINITY ENERGY LLC,221330,Steam/Heating Facility,42.349464,-71.057976,OP,2020,87556313,3,Boiler,BOILER #3-FOSTER+WHEELER SC  QUAD-FUELS,600,E6BTU/HR,OP,1975,,,A,R,NOX,Nitrogen Oxides,37.57,TON,2023EPA_EGU
MA,25,,25005,Bristol,6624211,MADEP,1200276,DIGHTON POWER LLC,DIGHTON POWER,221112,Electricity Generation via Combustion,41.831281,-71.124411,OP,2020,87454013,1,Combined Cycle (Boiler/Gas Turbine),GAS TURBINE #1 - GT11N2,1636,E6BTU/HR,OP,1999,,,A,R,NOX,Nitrogen Oxides,17.232,TON,2023EPA_EGU
FL,12,,12071,Lee,922311,FLDEP,710002,Florida Power & Light Company,FLORIDA POWER & LIGHT,221112,Electricity Generation via Combustion,26.6967,-81.7831,OP,2008,125617813,34,Turbine,"Combustion Turbine 3C, Simple Cycle Peaking Unit",2450,E6BTU/HR,OP,,,,A,R,NOX,Nitrogen Oxides,14.354,TON,2023EPA_EGU
FL,12,,12071,Lee,922311,FLDEP,710002,Florida Power & Light Company,FLORIDA POWER & LIGHT,221112,Electricity Generation via Combustion,26.6967,-81.7831,OP,2008,46494313,18,Combined Cycle (Boiler/Gas Turbine),250MW Combined Cycle Combustion Turbine (2A),1780,E6BTU/HR,OP,2008,,,A,R,NOX,Nitrogen Oxides,153.992,TON,2023EPA_EGU
MO,29,,29071,Franklin,6032111,MODNR,3,Union Electric Company,AMEREN MISSOURI LABADIE ENERGY CENTER,221112,Electricity Generation via Combustion,38.562074,-90.836593,OP,2009,24463913,6964,Boiler,B1-BOILER 1,6180,E6BTU/HR,OP,,,,A,R,NOX,Nitrogen Oxides,2025.726,TON,2023EPA_EGU
NY,36,,36071,Orange,8427811,NYDEC,3334600075,DYNEGY NORTHEAST GENERATION,ROSETON GENERATING STATION,221112,Electricity Generation via Combustion,41.5717,-73.97502,OP,2008,1624813,UR0002,Boiler,EMISSION UNIT,6990,E6BTU/HR,OP,,,,A,R,NOX,Nitrogen Oxides,76.923,TON,2023EPA_EGU
SD,46,,46099,Minnehaha,9164411,SDDENR,28.0801-01,Northern States Power Company,Angus Anson,221112,Electricity Generation via Combustion,43.6032,-96.6363,OP,2008,138594013,8,Turbine,,1980,E6BTU/HR,OP,,,,A,R,NOX,Nitrogen Oxides,21.269,TON,2023EPA_EGU
IN,18,,18177,Wayne,5506011,INDEM,9,Na,Indiana Municipal Power Agency,221112,Electricity Generation via Combustion,39.8028,-84.8953,OP,2020,27516313,1,Boiler,#1 BOILER,399,E6BTU/HR,OP,2020,,,A,R,NOX,Nitrogen Oxides,15.53,TON,2023EPA_EGU
IN,18,,18179,Wells,5507411,INDEM,26,Na,Montpelier Generating Station LLC,221112,Electricity Generation via Combustion,40.620474,-85.30539,OP,2018,27512713,2,Turbine,GEN 1 - COMB TURBINE 2,305,E6BTU/HR,OP,2012,,,A,R,NOX,Nitrogen Oxides,11.104,TON,2023EPA_EGU
IN,18,,18179,Wells,5507411,INDEM,26,Na,Montpelier Generating Station LLC,221112,Electricity Generation via Combustion,40.620474,-85.30539,OP,2018,27512913,1,Turbine,GEN 1 - COMB TURBINE 1,304,E6BTU/HR,OP,2012,,,A,R,NOX,Nitrogen Oxides,19.762,TON,2023EPA_EGU
CO,8,,8107,Routt,4458511,CODPHE,CO0000000810700001,Public Service Company Of Colorado,PUBLIC SERVICE CO - HAYDEN PLT,221112,Electricity Generation via Combustion,40.486796,-107.185381,OP,2008,36377413,107-0001-001,Boiler,BOILER #1,1963,E6BTU/HR,OP,,,,A,R,NOX,Nitrogen Oxides,326.384,TON,2023EPA_EGU
MO,29,,29107,Lafayette,7269411,MODNR,38,Na,HIGGINSVILLE MUNICIPAL POWER FACILITY,221112,Electricity Generation via Combustion,39.0734,-93.7144,OP,2009,9960013,12513,Turbine,P04A-DUAL-FUEL FIRED TWIN PAC TURBINE-SIDE A,2,MW,OP,,,,A,R,NOX,Nitrogen Oxides,7.944,TON,2023EPA_EGU
MO,29,,29107,Lafayette,7269411,MODNR,38,Na,HIGGINSVILLE MUNICIPAL POWER FACILITY,221112,Electricity Generation via Combustion,39.0734,-93.7144,OP,2009,9960613,12514,Turbine,P04B-DUAL-FUEL FIRED TWIN PAC TURBINE-SIDE B,38,MW,OP,,,,A,R,NOX,Nitrogen Oxides,7.085,TON,2023EPA_EGU
OK,40,,40109,Oklahoma,9219711,OKDEQ,4240,OG AND E,REDBUD POWER PLANT,221112,Electricity Generation via Combustion,35.686,-97.2244,OP,2008,57748413,20264,Combined Cycle (Boiler/Gas Turbine),Combustion turbines  GE Model 7FA -CTG 2,2430,E6BTU/HR,OP,2007,,,A,R,NOX,Nitrogen Oxides,68.309,TON,2023EPA_EGU
OK,40,,40109,Oklahoma,9219711,OKDEQ,4240,OG AND E,REDBUD POWER PLANT,221112,Electricity Generation via Combustion,35.686,-97.2244,OP,2008,57748613,20266,Combined Cycle (Boiler/Gas Turbine),Combustion turbines  GE Model 7FA  CTG 4,2430,E6BTU/HR,OP,2007,,,A,R,NOX,Nitrogen Oxides,70.753,TON,2023EPA_EGU
VA,51,,51109,Louisa,5040011,VADEQ,40808,Dominion - Gordonsville Power Station,Dominion-Gordonsville Power Station,221112,Electricity Generation via Combustion,38.124685,-78.203024,OP,2008,28682813,1,Turbine,Turbine Unit 1 - Fuel Consumption,1190,E6BTU/HR,OP,,,,A,R,NOX,Nitrogen Oxides,50.315,TON,2023EPA_EGU
IA,19,,19113,Linn,3940211,IADNR,57-01-042,IPL/Alliant Energy Corp.,IPL - PRAIRIE CREEK GENERATING STATION,221112,Electricity Generation via Combustion,41.9441,-91.6392,OP,2008,37605913,302-303,Boiler,BOILER #3,611,E6BTU/HR,OP,,,,A,R,NOX,Nitrogen Oxides,412.1,TON,2023EPA_EGU
KS,20,,20113,McPherson,5380511,KSDOHE,46,McPherson Board of Public Utilities,McPherson Mun. Power Plant #3,221112,Electricity Generation via Combustion,38.389777,-97.610476,OP,2020,27084513,1,Turbine,UNIT NO. 1- 650 MMBTU,650,E6BTU/HR,OP,2020,,,A,R,NOX,Nitrogen Oxides,17.047,TON,2023EPA_EGU
IL,17,,17115,Macon,8139911,ILEPA,115015AAE,,Archer Daniels Midland Co,311221,Ethanol Biorefineries/Soy Biodiesel,39.870014,-88.890964,OP,2008,4636413,222,Boiler,Cogen: FB Boiler #9,207,E6BTU/HR,OP,,,,A,R,NOX,Nitrogen Oxides,214.406,TON,2023EPA_EGU
IL,17,,17115,Macon,8139911,ILEPA,115015AAE,,Archer Daniels Midland Co,311221,Ethanol Biorefineries/Soy Biodiesel,39.870014,-88.890964,OP,2008,4640713,226,Boiler,Cogen: FB Boiler #4,492,E6BTU/HR,OP,,,,A,R,NOX,Nitrogen Oxides,120.536,TON,2023EPA_EGU
LA,22,,22019,Calcasieu,7354911,LADEQ08,1255,Westlake US 2 LLC,Westlake US 2 LLC - Westlake Lake Charles South,325199,Chlor-alkali Plant,30.2235,-93.2869,OP,2023,82306013,SR032,Boiler,RS Cogen No. 5 Boiler,1230,E6BTU/HR,OP,,,,A,R,NOX,Nitrogen Oxides,305.118,TON,2023EPA_EGU
MS,28,,28019,Choctaw,7053011,MSDEQ,2801900011,AI000677,"CHOCTAW GENERATION LIMITED PARTNERSHIP,",221112,Electricity Generation via Combustion,33.37648,-89.21783,OP,2008,65310713,AA-002,Boiler,NG/LIGNITE BOILER,2480,E6BTU/HR,OP,,,,A,R,NOX,Nitrogen Oxides,864.681,TON,2023EPA_EGU
MS,28,,28019,Choctaw,12589611,MSDEQ,2801900019,AI015884,TVA ACKERMAN COMBINED CYCLE,221112,Electricity Generation via Combustion,33.37936,-89.20934,OP,2008,63862113,AA-001,Turbine,2737MMBTUH NG TURBINE,2740,E6BTU/HR,OP,,,,A,R,NOX,Nitrogen Oxides,47.982,TON,2023EPA_EGU
NY,36,,36019,Clinton,8375111,NYDEC,5094200106,SARANAC POWER PARTNERS LP,SARANAC POWER PARTNERS COGENERATION FAC,221112,Electricity Generation via Combustion,44.71315,-73.45594,OP,2008,1671313,U00002,Turbine,EMISSION UNIT,1680,E6BTU/HR,OP,,,,A,R,NOX,Nitrogen Oxides,5.834,TON,2023EPA_EGU
OR,41,,41035,Klamath,9223711,ORDEQ,18-0003,Klamath Energy LLC,Klamath Cogeneration Proj,221112,Electricity Generation via Combustion,42.174,-121.8108,OP,1999,118464113,CT 3-6,Turbine,Turbines 3-6,1120,E6BTU/HR,OP,,,,A,R,NOX,Nitrogen Oxides,17.077,TON,2023EPA_EGU
UT,49,,49035,Salt Lake,7559311,UTDAQ,10355,Pacificorp Energy,Pacificorp Energy- Gadsby Power Plant,221112,Electricity Generation via Combustion,40.768607,-111.929173,OP,2011,11942213,9143,Boiler,Utility Boiler - Unit 2,80,MW,OP,,,,A,R,NOX,Nitrogen Oxides,54.74,TON,2023EPA_EGU
WA,53,,53041,Lewis,6281311,WASWCAA,754,"TransAlta Centralia Generation, LLC","TransAlta Centralia Generation, LLC",221112,Electricity Generation via Combustion,46.755766,-122.858237,OP,,15504813,1250,Boiler,Coal boiler Unit 2 (BW22) - Combustion Engineering stack,8000,E6BTU/HR,OP,,,,A,R,NOX,Nitrogen Oxides,4107.822,TON,2023EPA_EGU
NY,36,,36045,Jefferson,8104811,NYDEC,6224000009,BLACK RIVER GENERATION LLC,BLACK RIVER GENERATION LLC,221118,Electricity Generation via Combustion,44.036668,-75.771708,OP,2008,4821513,U00001,Boiler,EMISSION UNIT,249,E6BTU/HR,OP,,,,A,R,NOX,Nitrogen Oxides,91.604,TON,2023EPA_EGU
PA,42,,42045,Delaware,4724611,PADEP,420450221,LIBERTY ELEC POWER LLC,LIBERTY ELEC POWER LLC/EDDYSTONE PLT,221112,Electricity Generation via Combustion,39.86248,-75.33577,OP,2008,27721713,32,Turbine,COMBUSTION TURBINE 2 WITH DUCT BURNER,2240,E6BTU/HR,OP,2023,,,A,R,NOX,Nitrogen Oxides,77.716,TON,2023EPA_EGU
MI,26,,26049,Genesee,6472811,MIDEQ,N3570,GENESEE POWER STATION LIMITED PARTNERSHIP,GENESEE POWER STATION LIMITED PARTNERSHIP,221118,Electricity Generation via Combustion,43.085103,-83.669317,OP,2020,17731913,EU0009,Boiler,"The electric generation group consists of the wood waste boiler, a selective noncatalytic reduction",523,E6BTU/HR,OP,2020,,,A,R,NOX,Nitrogen Oxides,178.632,TON,2023EPA_EGU
MS,28,,28049,Hinds,6966711,MSDEQ,2804900230,AI012051,"ENTERGY MISSISSIPPI INC, HINDS COUNTY PL",221112,Electricity Generation via Combustion,32.37854,-90.21987,OP,2008,13985513,AA-002,Turbine,1732MMBTU NG TURBINE HRSG,1730,E6BTU/HR,OP,,,,A,R,NOX,Nitrogen Oxides,66.204,TON,2023EPA_EGU
WV,54,,54049,Marion,4864511,WVDAQ,26,AMERICAN BITUMINOUS POWER-GRANT TOWN PLT,AMERICAN BITUMINOUS POWER-GRANT TOWN PLT,221112,Electricity Generation via Combustion,39.5609,-80.1631,OP,2017,71941913,1,Boiler,FLUIDIZED BED COMB. BOIL.,866,E6BTU/HR,OP,2013,,,A,R,NOX,Nitrogen Oxides,935.557,TON,2023EPA_EGU
NE,31,,31055,Douglas,6732411,NEOPWD,2,Omaha Public Power District,Omaha Public Power District - North Omaha Power Station,221112,Electricity Generation via Combustion,41.329911,-95.945832,OP,2012,105526313,3BA,Boiler,Boiler 3,1360,E6BTU/HR,OP,,,,A,R,NOX,Nitrogen Oxides,49.697,TON,2023EPA_EGU
NE,31,,31055,Douglas,6732411,NEOPWD,2,Omaha Public Power District,Omaha Public Power District - North Omaha Power Station,221112,Electricity Generation via Combustion,41.329911,-95.945832,OP,2012,105526513,5BC,Boiler,Boiler 5,2590,E6BTU/HR,OP,,,,A,R,NOX,Nitrogen Oxides,1501.114,TON,2023EPA_EGU
NE,31,,31055,Douglas,6732511,NEOPWD,3,Omaha Public Power District,Omaha Public Power District - Jones Street Power Station,221112,Electricity Generation via Combustion,41.2517,-95.9222,OP,2012,105527713,2,Turbine,Gas Turbine #2,795,E6BTU/HR,OP,,,,A,R,NOX,Nitrogen Oxides,46.116,TON,2023EPA_EGU
WI,55,,55055,Jefferson,7049311,WIDNR,128085210,Cogentrix Energy LLC,WE ENERGIES - WHITEWATER GENERATING STATION,221112,Electricity Generation via Combustion,42.855095,-88.729859,OP,2023,14657813,B01,Turbine,COMBUSTION TURBINE/HRSG WITH SUPPLEMENTAL FIRING,2240,E6BTU/HR,OP,2012,,,A,R,NOX,Nitrogen Oxides,43.633,TON,2023EPA_EGU
FL,12,,12057,Hillsborough,538611,FLDEP,570039,Tampa Electric Company,TAMPA ELECTRIC COMPANY (TEC),221112,Electricity Generation via Combustion,27.795252,-82.403209,OP,2008,48398013,3,Boiler,Fossil Fuel Fired Steam Generator Unit No. 3,4120,E6BTU/HR,OP,2008,,,A,R,NOX,Nitrogen Oxides,98.293,TON,2023EPA_EGU
FL,12,,12057,Hillsborough,901211,FLDEP,570040,Tampa Electric Company,TAMPA ELECTRIC COMPANY,221112,Electricity Generation via Combustion,27.9073,-82.4164,OP,2008,67261913,22,Turbine,Bayside Unit 1C - 183 MW combined cycle gas turbine,1820,E6BTU/HR,OP,2008,,,A,R,NOX,Nitrogen Oxides,46.82,TON,2023EPA_EGU
IN,18,,18057,Hamilton,4561111,INDEM,4,Na,Duke Energy Indiana LLC - Noblesville G,221112,Electricity Generation via Combustion,40.0959,-85.9707,OP,2019,91186013,10,Turbine,COMBUSTION TURBINE #5,834,E6BTU/HR,OP,2013,,,A,R,NOX,Nitrogen Oxides,17.171,TON,2023EPA_EGU
NY,36,,36067,Onondaga,7435811,NYDEC,7312600127,CARR STREET GENERATING STATION LP,CARR STREET GENERATING STATION,221112,Electricity Generation via Combustion,43.062038,-76.082864,OP,2008,7947913,1TURBS,Combined Cycle (Boiler/Gas Turbine),2 CTs and 1 ST,96,MW,OP,,,,A,R,NOX,Nitrogen Oxides,22.293,TON,2023EPA_EGU
CO,8,,8069,Larimer,4364011,CODPHE,CO0000000806900053,Platte River Power Authority,PLATTE RIVER POWER AUTHORITY - RAWHIDE,221112,Electricity Generation via Combustion,40.86162,-105.02381,OP,2008,36155313,069-0053-001,Boiler,BOILER #1,3000,E6BTU/HR,OP,,,,A,R,NOX,Nitrogen Oxides,786.34,TON,2023EPA_EGU
MS,28,,28069,Kemper,7356611,MSDEQ,2806900015,AI015543,"TENNESSEE VALLEY AUTHORITY, TVA, KEMPER",221112,Electricity Generation via Combustion,32.7974,-88.6057,OP,2008,8108213,AA-001,Turbine,1278MMBTUH NG/FO TURBINE,1280,E6BTU/HR,OP,,,,A,R,NOX,Nitrogen Oxides,2.525,TON,2023EPA_EGU
OK,40,,40097,Mayes,8350611,OKDEQ,2396,ASSOCIATED ELECTRIC COOPERATIVE INC,CHOUTEAU POWER PLANT,221112,Electricity Generation via Combustion,36.2221,-95.2761,OP,2008,97012313,50927,Turbine,CTNO 4 Siemens V84.3a Combustion Turbine,1880,E6BTU/HR,OP,2007,,,A,R,NOX,Nitrogen Oxides,26.004,TON,2023EPA_EGU
OK,40,,40097,Mayes,8522311,OKDEQ,799,GRAND RIVER DAM AUTHORITY,GRAND RIVER ENERGY CENTER,221112,Electricity Generation via Combustion,36.1889,-95.2882,OP,2008,128893613,162182,Combined Cycle (Boiler/Gas Turbine),Electric Power Generation Unit 3,4160,E6BTU/HR,OP,2017,,,A,R,NOX,Nitrogen Oxides,262.167,TON,2023EPA_EGU
TX,48,,48221,Hood,9116611,TXCEQ,690,WOLF HOLLOW I POWER LLC,WOLF HOLLOW I,221112,Electricity Generation via Combustion,32.334031,-97.731886,OP,2005,57528013,1,Turbine,COMBINED CYCLE TURBINE NO. 1 W/BURNERS,2420,E6BTU/HR,OP,2003,,,A,R,NOX,Nitrogen Oxides,143.971,TON,2023EPA_EGU
KY,21,,21223,Trimble,5742811,KYDAQ,2122300002,Louisville Gas And Electric Company,Louisville Gas & Electric Co - Trimble Co Generating Station,221112,Electricity Generation via Combustion,38.5847,-85.4117,OP,2008,22616013,27,Turbine,GAS UNIT TURBINE (TC7)   General Electric 7FA nat,2050,E6BTU/HR,OP,,,,A,R,NOX,Nitrogen Oxides,19.921,TON,2023EPA_EGU
NV,32,,32003,Clark,12768311,NVCCDAQM,1513,,Nevada Power (Chuck Lenzie),221112,Electricity Generation via Combustion,36.38387,-114.92209,OP,,67164413,1,Turbine,Turbine 1 and Duct Fired HRSG,292,MW,OP,,,,A,R,NOX,Nitrogen Oxides,51.972,TON,2023EPA_EGU
NV,32,,32003,Clark,12768311,NVCCDAQM,1513,,Nevada Power (Chuck Lenzie),221112,Electricity Generation via Combustion,36.38387,-114.92209,OP,,67164513,3,Turbine,Turbine 2 and Duct Fired HRSG,292,MW,OP,,,,A,R,NOX,Nitrogen Oxides,52.224,TON,2023EPA_EGU
NV,32,,32003,Clark,8177511,NVCCDAQM,393,,Saguaro Power Company,221112,Electricity Generation via Combustion,36.0422,-115.0116,OP,2008,67158213,1,Turbine,Turbine #1,34.5,MW,OP,,,,A,R,NOX,Nitrogen Oxides,106.721,TON,2023EPA_EGU
NV,32,,32003,Clark,9399011,NVCCDAQM,533,,Nevada Power Company (Harry Allen),221112,Electricity Generation via Combustion,36.42829,-114.90022,OP,2008,55526813,1,Turbine,53301 GE 75MW Turbine,75,MW,OP,,,,A,R,NOX,Nitrogen Oxides,18.262,TON,2023EPA_EGU
GA,13,,13233,Polk,15602211,GADNR,23300042,,Sewell Creek Energy Facility,221112,Electricity Generation via Combustion,33.94795,-85.27686,OP,2023,98381013,CT3,Turbine,Siemens V84.3A* Turbine,138,MW,OP,2023,,,A,R,NOX,Nitrogen Oxides,60.164,TON,2023EPA_EGU
SC,45,,45015,Berkeley,4120411,SCDHEC,0420-0030,Santee Cooper,SANTEE COOPER CROSS GENERATING STATION,221112,Electricity Generation via Combustion,33.369359,-80.113172,OP,2014,69630213,10,Boiler,BLR 4-5200MMBTU/Coal/2Oil,5400,E6BTU/HR,OP,2014,,,A,R,NOX,Nitrogen Oxides,1345.028,TON,2023EPA_EGU
UT,49,,49015,Emery,5050611,UTDAQ,10238,PacifiCorp,PacifiCorp- Huntington Power Plant,221112,Electricity Generation via Combustion,39.379,-111.0798,OP,2011,25902813,4032,Boiler,1 - Dry bottom tang. fired utility,480,MW,OP,,,,A,R,NOX,Nitrogen Oxides,2046.659,TON,2023EPA_EGU
FL,12,,12017,Citrus,640611,FLDEP,170004,"DUKE ENERGY FLORIDA, LLC",CRYSTAL RIVER POWER PLANT,221112,Electricity Generation via Combustion,28.9628,-82.6928,OP,2008,134840013,42,Combined Cycle (Boiler/Gas Turbine),Combined Cycle Unit 2A - 300 MW CT with duct-fired HRSG,2940,E6BTU/HR,OP,,,,A,R,NOX,Nitrogen Oxides,554.327,TON,2023EPA_EGU
LA,22,,22017,Caddo,6116111,LADEQ08,1060,Southwestern Electric Power Co (SWEPCO),Southwestern Electric Power Company - Arsenal Hill Power Plant,221112,Electricity Generation via Combustion,32.519584,-93.760604,OP,2023,95093913,CTG-6B,Turbine,Combustion Turbine/HRSG Train,2110,E6BTU/HR,OP,,,,A,R,NOX,Nitrogen Oxides,64.738,TON,2023EPA_EGU
MI,26,,26017,Bay,8172811,MIDEQ,B2840,Consumers Energy Company,Consumers Energy D.E. Karn Facility,221112,Electricity Generation via Combustion,43.642,-83.8421,OP,2020,4491913,EU0036,Boiler,Karn boiler #3. A 7290 MMBtu/hr natural gas and fuel oil fired boiler.,7290,E6BTU/HR,OP,2006,,,A,R,NOX,Nitrogen Oxides,30.656,TON,2023EPA_EGU
WI,55,,55017,Chippewa,6870311,WIDNR,609042720,,XCEL ENERGY-WHEATON GENERATING STATION,221112,Electricity Generation via Combustion,44.8857,-91.5159,OP,2023,13263313,P30,Turbine,"General Electric Model 7001 B, Simple Cycle Combustion Turbine (Unit 1)  EI: GENERATE POWER NO 1 G-E",867,E6BTU/HR,OP,2021,,,A,R,NOX,Nitrogen Oxides,13.652,TON,2023EPA_EGU
CA,6,,6019,Fresno,15863611,CARB,1014307220,PANOCHE ENERGY CENTER LLC,PANOCHE ENERGY CENTER LLC,221112,Electricity Generation via Combustion,36.6511,-120.5844,OP,,102017413,2,Turbine,NATURAL GAS TURBINE GENERATOR,950,E6BTU/HR,OP,,,,A,R,NOX,Nitrogen Oxides,6.235,TON,2023EPA_EGU
MA,25,,25021,Norfolk,5851311,MADEP,1200133,EXELON WEST MEDWAY LLC AND WEST MEDWAY II LLC,CONSTELLATION WEST MEDWAY LLC,221112,Electricity Generation via Combustion,42.139566,-71.447822,OP,2020,137477813,17,Turbine,COMBUSTION TURBINE J5,992,E6BTU/HR,OP,,,,A,R,NOX,Nitrogen Oxides,3.95,TON,2023EPA_EGU
MA,25,,25021,Norfolk,5851311,MADEP,1200133,EXELON WEST MEDWAY LLC AND WEST MEDWAY II LLC,CONSTELLATION WEST MEDWAY LLC,221112,Electricity Generation via Combustion,42.139566,-71.447822,OP,2020,87476713,2,Turbine,TURBINE #2-ROLLS ROYCE AVON 1533-77C,392,E6BTU/HR,OP,1970,,,A,R,NOX,Nitrogen Oxides,3.926,TON,2023EPA_EGU
MO,29,,29021,Buchanan,6346411,MODNR,4,"Aquila, Inc",EVERGY INC LAKE ROAD GENERATING STATION,221112,Electricity Generation via Combustion,39.7245,-94.8773,OP,2009,15421913,3185,Turbine,"07-GAS TURBINE #5, STACK & WASTE HEAT BOILER #7",867,E6BTU/HR,OP,,,,A,R,NOX,Nitrogen Oxides,84.154,TON,2023EPA_EGU
NC,37,,37021,Buncombe,8392811,NCBCRAQA,628,"Progress Energy Carolinas, Inc.","Duke Energy Progress , Inc. - Asheville Steam Electric Plant",221112,Electricity Generation via Combustion,35.471596,-82.542194,OP,2008,137508413,Unit 5 Main,Turbine,Combustion turbine that operates in combined cycle,2210,E6BTU/HR,OP,,,,A,R,NOX,Nitrogen Oxides,168.953,TON,2023EPA_EGU
TX,48,,48021,Bastrop,3981511,TXCEQ,2,LOWER COLORADO RIVER AUTHORITY,SIM GIDEON POWER PLANT,221112,Electricity Generation via Combustion,30.145614,-97.271139,OP,1980,35536413,3,Boiler,UNIT 3 BOILER,3400,E6BTU/HR,OP,1986,,,A,R,NOX,Nitrogen Oxides,502.774,TON,2023EPA_EGU
MO,29,,29097,Jasper,5338211,MODNR,62,Empire District Electric Company,EMPIRE DISTRICT ELECTRIC CO EMPIRE ENERGY CENTER,221112,Electricity Generation via Combustion,37.1384,-94.1044,OP,2009,59036413,10645,Turbine,EP-06-TURBINE 3A,275,E6BTU/HR,OP,2008,,,A,R,NOX,Nitrogen Oxides,20.239,TON,2023EPA_EGU
IN,18,,18077,Jefferson,7744211,INDEM,1,Na,Indiana-Kentucky Electric Corporation -,221112,Electricity Generation via Combustion,38.7383,-85.4192,OP,2020,1876413,6,Boiler,BOILER #6 PULV COAL WET B,2800,E6BTU/HR,OP,2020,,,A,R,NOX,Nitrogen Oxides,727.363,TON,2023EPA_EGU
OH,39,,39161,Van Wert,9216911,OHEPA,381000043,,Robert P. Mone Plant (0381000043),221112,Electricity Generation via Combustion,40.93,-84.73917,OP,2002,55668013,P003,Turbine,"GE-7FA simple cycle combustion turbine, 167 MW (nominal)",167,MW,OP,,,,A,R,NOX,Nitrogen Oxides,45.092,TON,2023EPA_EGU
IN,18,,18165,Vermillion,7248511,INDEM,1,Na,Duke Energy Indiana LLC - Cayuga Genera,221112,Electricity Generation via Combustion,39.9239,-87.4272,OP,2020,7458613,2,Boiler,BOILER 2 PC DB,5300,E6BTU/HR,OP,2020,,,A,R,NOX,Nitrogen Oxides,1924.5,TON,2023EPA_EGU
IN,18,,18165,Vermillion,7248511,INDEM,1,Na,Duke Energy Indiana LLC - Cayuga Genera,221112,Electricity Generation via Combustion,39.9239,-87.4272,OP,2020,91183713,4,Turbine,POWER TURBINE OIL 3A,1300,E6BTU/HR,OP,2020,,,A,R,NOX,Nitrogen Oxides,6.002,TON,2023EPA_EGU
IN,18,,18165,Vermillion,4133511,INDEM,22,Na,Duke Energy Indiana LLC Vermillion Gene,221112,Electricity Generation via Combustion,39.922376,-87.446392,OP,2020,33175413,1,Turbine,TURBINE 1,1270,E6BTU/HR,OP,2020,,,A,R,NOX,Nitrogen Oxides,11.937,TON,2023EPA_EGU
TN,47,,47165,Sumner,5610411,TNDEC,83-0025,TVA GALLATIN FOSSIL PLANT,TVA - Gallatin Fossil Plant,221112,Electricity Generation via Combustion,36.3246,-86.4026,OP,2008,22206213,5,Turbine,COMBUSTION TURBINES #1-4,5140,E6BTU/HR,OP,,,,A,R,NOX,Nitrogen Oxides,26.502,TON,2023EPA_EGU
KY,21,,21167,Mercer,5933111,KYDAQ,2116700001,Louisville Gas And Electric Company,KY Utilities Co - Brown Station,221112,Electricity Generation via Combustion,37.7889,-84.7139,OP,2008,86760113,29,Turbine,EU29 - 1368 MMBtu/hr Combustion Turbine #5 Simple,1370,E6BTU/HR,OP,,,,A,R,NOX,Nitrogen Oxides,4.131,TON,2023EPA_EGU
OH,39,,39167,Washington,9213011,OHEPA,684000212,,Washington Power Generation LLC (0684000212),221112,Electricity Generation via Combustion,39.5798,-81.6571,OP,2002,55703313,P001,Turbine,Nominally Rated 207 MW GE 7FA - Natural-Gas Fired Dry Low NOx (DLN) Combustion Turbine with duct...,207,MW,OP,,,,A,R,NOX,Nitrogen Oxides,72.226,TON,2023EPA_EGU
OH,39,,39167,Washington,9212911,OHEPA,684000213,AEP Generation Resources,Waterford Plant (0684000213),221112,Electricity Generation via Combustion,39.53333,-81.71694,OP,2001,55703913,P001,Turbine,"Combined cycle unit consisting of a GE 7FA, Model PG7241(FA) natural gas-fired, dry low-NOx (DLN...",2100,E6BTU/HR,OP,,,,A,R,NOX,Nitrogen Oxides,68.794,TON,2023EPA_EGU
VA,51,,51167,Russell,5763511,VADEQ,10236,American Electric Power-Clinch River Plant,American Electric Power-Clinch River Plant,221112,Electricity Generation via Combustion,36.9333,-82.1997,OP,2008,21755613,1,Boiler,Unit #1 and #2,2100,E6BTU/HR,OP,,,,A,R,NOX,Nitrogen Oxides,72.603,TON,2023EPA_EGU
NC,37,,37169,Stokes,8514011,NCDAQ,3716900004,"Duke Energy Carolinas, LLC","Duke Energy Carolinas, LLC - Belews Creek Steam Station",221112,Electricity Generation via Combustion,36.2822,-80.0589,OP,2008,1578913,G-17,Boiler,"One natural gas/coal-fired electric utility boiler (12,000 million Btu per hour heat input) equipped",12000,E6BTU/HR,OP,,,,A,R,NOX,Nitrogen Oxides,3484.483,TON,2023EPA_EGU
IL,17,,17171,Scott,5457411,ILEPA,171851AAA,Prairie Power Incorporated,Prairie Power Inc,221112,Electricity Generation via Combustion,39.569743,-90.436174,OP,2009,27026713,1,Turbine,Turbine ACT 1,450,E6BTU/HR,OP,,,,A,R,NOX,Nitrogen Oxides,1.802,TON,2023EPA_EGU
IL,17,,17173,Shelby,4725911,ILEPA,173801AAA,"Reliant Energy Wholesale Generation, LLC",Shelby County Energy Center,221112,Electricity Generation via Combustion,39.279118,-88.477638,OP,2009,28334613,4,Turbine,Gas turbine #4 (CTG4) - 45 MW,444,E6BTU/HR,OP,,,,A,R,NOX,Nitrogen Oxides,16.019,TON,2023EPA_EGU
IL,17,,17173,Shelby,4725911,ILEPA,173801AAA,"Reliant Energy Wholesale Generation, LLC",Shelby County Energy Center,221112,Electricity Generation via Combustion,39.279118,-88.477638,OP,2009,28334913,2,Turbine,Gas turbine #2 (CTG2) - 50 MW,444,E6BTU/HR,OP,,,,A,R,NOX,Nitrogen Oxides,15.582,TON,2023EPA_EGU
IL,17,,17173,Shelby,4725911,ILEPA,173801AAA,"Reliant Energy Wholesale Generation, LLC",Shelby County Energy Center,221112,Electricity Generation via Combustion,39.279118,-88.477638,OP,2009,28335213,5,Turbine,Gas turbine #5 (CTG5) - 45 MW,444,E6BTU/HR,OP,,,,A,R,NOX,Nitrogen Oxides,11.098,TON,2023EPA_EGU
IN,18,,18173,Warrick,8183111,INDEM,2,Na,ALCOA Warrick Power Plant AGC Div of Al,221112,Electricity Generation via Combustion,37.9147,-87.3329,OP,2020,91184713,10,Boiler,BOILER NO.4 WITH FGD,4460,E6BTU/HR,OP,2020,,,A,R,NOX,Nitrogen Oxides,2241.634,TON,2023EPA_EGU
OH,39,,39173,Wood,9253811,OHEPA,387000377,,"Troy Energy, LLC (0387000377)",221112,Electricity Generation via Combustion,41.47684,-83.46102,OP,2001,55202213,P002,Turbine,"1,570 mmBTU/hr combustion turbine",191,MW,OP,,,,A,R,NOX,Nitrogen Oxides,29.913,TON,2023EPA_EGU
NY,36,,36103,Suffolk,8452911,NYDEC,1472202441,NISSEQUOGUE COGEN PARTNERS,NISSEQUOGUE COGEN PARTNERS PLANT,221112,Electricity Generation via Combustion,40.916823,-73.129066,OP,2008,574413,100001,Turbine,EMISSION UNIT,670,E6BTU/HR,OP,,,,A,R,NOX,Nitrogen Oxides,133.958,TON,2023EPA_EGU
NC,37,,37191,Wayne,7265811,NCDAQ,3719100017,"Duke Energy Progress, LLC","Duke Energy Progress, LLC - H.F. Lee Steam Electric Plant",221112,Electricity Generation via Combustion,35.37991,-78.087688,OP,2008,10758113,G-19,Turbine,LEE IC UNIT10/11,4000,E6BTU/HR,OP,,,,A,R,NOX,Nitrogen Oxides,9.186,TON,2023EPA_EGU
VA,51,,51195,Wise,16530111,VADEQ,11526,Dominion - Virginia City Hybrid Energy Center,Dominion - Virginia City Hybrid Energy Center,221112,Electricity Generation via Combustion,36.9164,-82.3383,OP,2012,105638013,1,Boiler,CFB Boiler #1,3130,E6BTU/HR,OP,,,,A,R,NOX,Nitrogen Oxides,110.232,TON,2023EPA_EGU
MN,27,,27059,Isanti,6167711,MNPCA,2705900014,,Great River Energy - Cambridge,221112,Electricity Generation via Combustion,45.60048,-93.20759,OP,2008,79523213,EU002,Turbine,Turbine 002,190,MW,OP,,,,A,R,NOX,Nitrogen Oxides,13.346,TON,2023EPA_EGU
MS,28,,28059,Jackson,6251011,MSDEQ,2805900090,AI001321,"MISSISSIPPI POWER COMPANY, PLANT VICTOR",221112,Electricity Generation via Combustion,30.530331,-88.556208,OP,2008,16467513,AA-006,Turbine,1946MMBTU TURBINE W/ HRSG,1950,E6BTU/HR,OP,,,,A,R,NOX,Nitrogen Oxides,50.11,TON,2023EPA_EGU
NY,36,,36059,Nassau,7221611,NYDEC,1282000553,NATIONAL GRID CORPORATE SERVICES LLC,EF BARRETT POWER STATION,221112,Electricity Generation via Combustion,40.61769,-73.64826,OP,2008,118548113,UCTPWN,Turbine,"8 PW simple cycle GTs, camd units 12 thru 19",2160,E6BTU/HR,OP,,,,A,R,NOX,Nitrogen Oxides,244.79,TON,2023EPA_EGU
OR,41,,41059,Umatilla,1099311,ORDEQ,30-0118,Hermiston Power LLC,Hermiston Power,221112,Electricity Generation via Combustion,45.7935,-119.3136,OP,1994,68339113,CTG1/HRSG1,Turbine,Combustion Turbine 1,1860,E6BTU/HR,OP,,,,A,R,NOX,Nitrogen Oxides,108.554,TON,2023EPA_EGU
OR,41,,41059,Umatilla,1099311,ORDEQ,30-0118,Hermiston Power LLC,Hermiston Power,221112,Electricity Generation via Combustion,45.7935,-119.3136,OP,1994,68339213,CTG2/HRSG2,Turbine,Combustion Turbine 2,1860,E6BTU/HR,OP,,,,A,R,NOX,Nitrogen Oxides,109.698,TON,2023EPA_EGU
MI,26,,26065,Ingham,5985211,MIDEQ,B2647,Lansing Board of Water & Light,LBWL - REO Town Plant,221112,Electricity Generation via Combustion,42.7183,-84.5586,OP,2020,158074813,EU0036,Combined Cycle (Boiler/Gas Turbine),EUTURNINE1 is a 430 MMBtu per hour natural gas-fired turbine with an electrical generator coupled wi,430,E6BTU/HR,OP,,,,A,R,NOX,Nitrogen Oxides,62.01,TON,2023EPA_EGU
MI,26,,26139,Ottawa,8125511,MIDEQ,B2835,Consumers Energy Company,J. H. Campbell Plant,221112,Electricity Generation via Combustion,42.912078,-86.203574,OP,2020,6964113,EU0059,Boiler,Boiler #1.  A 2490 MMBtu/hr dry bottom tangential fired boiler with fuel oil fired startup capabilit,2490,E6BTU/HR,OP,2020,,,A,R,NOX,Nitrogen Oxides,1066.561,TON,2023EPA_EGU
MI,26,,26139,Ottawa,7087211,MIDEQ,N6521,Consumers Energy Company,Consumers Energy Co. - Zeeland Generating Station,221112,Electricity Generation via Combustion,42.820557,-85.997583,OP,2020,158090613,EU0004,Combined Cycle (Boiler/Gas Turbine),GE 7FA NATURAL GAS-FIRED COMBUSTION TURBINE 2B - CC4 (COMBINED CYCLE).   See the comments below.,1930,E6BTU/HR,OP,,,,A,R,NOX,Nitrogen Oxides,69.264,TON,2023EPA_EGU
TX,48,,48141,El Paso,4837411,TXCEQ,8,EL PASO ELECTRIC COMPANY,NEWMAN STATION,221112,Electricity Generation via Combustion,31.983842,-106.430919,OP,1980,31688713,2,Boiler,BOILER #2,859,E6BTU/HR,OP,1981,,,A,R,NOX,Nitrogen Oxides,287.441,TON,2023EPA_EGU
TX,48,,48141,El Paso,4837411,TXCEQ,8,EL PASO ELECTRIC COMPANY,NEWMAN STATION,221112,Electricity Generation via Combustion,31.983842,-106.430919,OP,1980,31689013,3,Boiler,BOILER #3,1030,E6BTU/HR,OP,1981,,,A,R,NOX,Nitrogen Oxides,99.925,TON,2023EPA_EGU
TX,48,,48141,El Paso,4837411,TXCEQ,8,EL PASO ELECTRIC COMPANY,NEWMAN STATION,221112,Electricity Generation via Combustion,31.983842,-106.430919,OP,1980,31689213,1,Boiler,BOILER #1,878,E6BTU/HR,OP,1981,,,A,R,NOX,Nitrogen Oxides,337.945,TON,2023EPA_EGU
VA,51,,51175,Southampton,6634511,VADEQ,61093,Dominion - Southampton Power Station,Dominion - Southampton Power Station,221112,Electricity Generation via Combustion,36.6521,-76.9952,OP,2008,17155213,2,Boiler,Point 002 Description,400,E6BTU/HR,OP,,,,A,R,NOX,Nitrogen Oxides,162.901,TON,2023EPA_EGU
VA,51,,51181,Surry,4937411,VADEQ,50336,Dominion - Gravel Neck CT Station,Dominion Energy - Surry and Gravel Neck Stations,221112,Electricity Generation via Combustion,37.1575,-76.6911,OP,2008,32379213,5,Turbine,turbines #3-6,1310,E6BTU/HR,OP,,,,A,R,NOX,Nitrogen Oxides,106.565,TON,2023EPA_EGU
CO,8,,8001,Adams,3555811,CODPHE,CO0000000800100001,Public Service Company Of Colorado,PUBLIC SERVICE CO - CHEROKEE PLT,221112,Electricity Generation via Combustion,39.807769,-104.964802,OP,2008,124566013,001-0001-028,Turbine,GAS TURBINE,2216,E6BTU/HR,OP,,,,A,R,NOX,Nitrogen Oxides,59.742,TON,2023EPA_EGU
TX,48,,48187,Guadalupe,4018911,TXCEQ,12,GUADALUPE POWER I LLC,GUADALUPE GENERATING STATION,221112,Electricity Generation via Combustion,29.623206,-98.139811,OP,1998,34400813,5,Turbine,COMBUSTION TURBINE GENERATOR (C.T.G.) #3,1810,E6BTU/HR,OP,2001,,,A,R,NOX,Nitrogen Oxides,215.759,TON,2023EPA_EGU
IL,17,,17197,Will,7973011,ILEPA,197809AAO,"Midwest Generation Eme, LLC",Midwest Generation LLC,221112,Electricity Generation via Combustion,41.4941,-88.1194,OP,2008,2981413,31,Boiler,Joliet 29: Unit 7 - Boilers 71 and 72,3017,E6BTU/HR,OP,,,,A,R,NOX,Nitrogen Oxides,187.274,TON,2023EPA_EGU
IL,17,,17197,Will,17933211,ILEPA,197035ABD,,Jackson Energy Center,221112,Electricity Generation via Combustion,41.438941,-88.110701,OP,2019,136222313,1,Turbine,Combined cycle combustion turbine #1,2047.3,E6BTU/HR,OP,2019,,,A,R,NOX,Nitrogen Oxides,69.791,TON,2023EPA_EGU
IL,17,,17197,Will,4506411,ILEPA,197808AAG,Elwood Energy LLC,Elwood Energy LLC,221112,Electricity Generation via Combustion,41.441376,-88.115418,OP,2009,88700813,13,Turbine,Turbine #6 (195 MW),1992,E6BTU/HR,OP,2009,,,A,R,NOX,Nitrogen Oxides,11.561,TON,2023EPA_EGU
IL,17,,17197,Will,4688511,ILEPA,197899AAB,University Park Energy LLC,University Park Energy LLC,221112,Electricity Generation via Combustion,41.440511,-87.753055,OP,2009,60404213,6,Turbine,Turbine UP6,271.5,E6BTU/HR,OP,,,,A,R,NOX,Nitrogen Oxides,9.508,TON,2023EPA_EGU
TX,48,,48201,Harris,21432511,TXCEQ,2077,LAPORTE POWER LLC,LAPORTE GENERATING STATION,221112,Electricity Generation via Combustion,29.703067,-95.071903,OP,2022,156209213,2,Turbine,GAS TURBINE 2,467,E6BTU/HR,OP,2001,,,A,R,NOX,Nitrogen Oxides,44.158,TON,2023EPA_EGU
TX,48,,48201,Harris,21432611,TXCEQ,2067,HO CLARKE GENERATING LLC,HO CLARKE GENERATING,221112,Electricity Generation via Combustion,29.646389,-95.451667,OP,2021,156205713,6,Turbine,COMBUSTION TURBINE 6,475,E6BTU/HR,OP,2021,,,A,R,NOX,Nitrogen Oxides,3.485,TON,2023EPA_EGU
TX,48,,48201,Harris,21432611,TXCEQ,2067,HO CLARKE GENERATING LLC,HO CLARKE GENERATING,221112,Electricity Generation via Combustion,29.646389,-95.451667,OP,2021,156205813,7,Turbine,COMBUSTION TURBINE 7,475,E6BTU/HR,OP,2021,,,A,R,NOX,Nitrogen Oxides,3.551,TON,2023EPA_EGU
TX,48,,48201,Harris,21432611,TXCEQ,2067,HO CLARKE GENERATING LLC,HO CLARKE GENERATING,221112,Electricity Generation via Combustion,29.646389,-95.451667,OP,2021,156205913,8,Turbine,COMBUSTION TURBINE 8,475,E6BTU/HR,OP,2021,,,A,R,NOX,Nitrogen Oxides,3.685,TON,2023EPA_EGU
TX,48,,48201,Harris,4057511,TXCEQ,1512,EIF CHANNELVIEW COGENERATION LLC,CHANNELVIEW COGENERATION FACILITY,221112,Electricity Generation via Combustion,29.836897,-95.121936,OP,1999,33490613,4,Turbine,GAS TURBINE,2060,E6BTU/HR,OP,2001,,,A,R,NOX,Nitrogen Oxides,86.006,TON,2023EPA_EGU
TX,48,,48201,Harris,4057511,TXCEQ,1512,EIF CHANNELVIEW COGENERATION LLC,CHANNELVIEW COGENERATION FACILITY,221112,Electricity Generation via Combustion,29.836897,-95.121936,OP,1999,33491113,1,Turbine,GAS TURBINE,2060,E6BTU/HR,OP,2001,,,A,R,NOX,Nitrogen Oxides,77.718,TON,2023EPA_EGU
TX,48,,48201,Harris,4777911,TXCEQ,46,NRG TEXAS POWER LLC,GREENS BAYOU ELECTRIC GENERATING STATION,221112,Electricity Generation via Combustion,29.8205,-95.2214,OP,1980,31929913,6,Turbine,GAS TURBINE #73,1000,E6BTU/HR,OP,2001,,,A,R,NOX,Nitrogen Oxides,22.04,TON,2023EPA_EGU
TX,48,,48201,Harris,4926511,TXCEQ,42,NRG TEXAS POWER LLC,TH WHARTON ELECTRIC GENERATING STATION,221112,Electricity Generation via Combustion,29.942222,-95.530556,OP,1980,31236413,14,Turbine,GAS TURBINE NO. 56,1090,E6BTU/HR,OP,2009,,,A,R,NOX,Nitrogen Oxides,28.771,TON,2023EPA_EGU
TX,48,,48201,Harris,6429411,TXCEQ,387,ODYSSEY ENERGY ALTURA COGEN LLC,ALTURA COGEN,221121,Electricity Generation via Combustion,29.816944,-95.108611,OP,1983,16631813,4,Turbine,TURBINE BOILER SET,854,E6BTU/HR,OP,1983,,,A,R,NOX,Nitrogen Oxides,61.374,TON,2023EPA_EGU
TX,48,,48201,Harris,6429411,TXCEQ,387,ODYSSEY ENERGY ALTURA COGEN LLC,ALTURA COGEN,221121,Electricity Generation via Combustion,29.816944,-95.108611,OP,1983,16632313,5,Turbine,TURBINE BOILER SET,854,E6BTU/HR,OP,1983,,,A,R,NOX,Nitrogen Oxides,73.992,TON,2023EPA_EGU
TX,48,,48201,Harris,6429411,TXCEQ,387,ODYSSEY ENERGY ALTURA COGEN LLC,ALTURA COGEN,221121,Electricity Generation via Combustion,29.816944,-95.108611,OP,1983,16632513,2,Turbine,TURBINE BOILER SET,854,E6BTU/HR,OP,1983,,,A,R,NOX,Nitrogen Oxides,75.371,TON,2023EPA_EGU
TX,48,,48201,Harris,6510011,TXCEQ,1537,CHANNEL ENERGY CENTER LLC,CHANNEL ENERGY CENTER,221112,Electricity Generation via Combustion,29.718639,-95.2321,OP,2003,17458513,4,Turbine,TURBINE/HRSG#1,1750,E6BTU/HR,OP,2002,,,A,R,NOX,Nitrogen Oxides,75.278,TON,2023EPA_EGU
TX,48,,48201,Harris,6510011,TXCEQ,1537,CHANNEL ENERGY CENTER LLC,CHANNEL ENERGY CENTER,221112,Electricity Generation via Combustion,29.718639,-95.2321,OP,2003,17458613,8,Turbine,TURBINE GTG 3,1750,E6BTU/HR,OP,2014,,,A,R,NOX,Nitrogen Oxides,44.991,TON,2023EPA_EGU
TX,48,,48201,Harris,4925011,TXCEQ,73,AIR LIQUIDE AMERICA CORPORATION,AIR LIQUIDE BAYPORT COMPL,325120,Chemical Plant,29.623333,-95.045833,OP,1980,31372013,26,Turbine,COMBUSTOIN GAS TURBINE & H.R. STEAM GENERATOR,1110,E6BTU/HR,OP,2000,,,A,R,NOX,Nitrogen Oxides,71.015,TON,2023EPA_EGU
KS,20,,20209,Wyandotte,4627911,KSDOHE,48,Board of Public Utilities,Kansas City BPU - Quindaro,221112,Electricity Generation via Combustion,39.150291,-94.640353,OP,2013,63913613,5,Turbine,#2 TURBINE,563,E6BTU/HR,OP,2012,,,A,R,NOX,Nitrogen Oxides,56.801,TON,2023EPA_EGU
CA,6,,6013,Contra Costa,10524811,CARB,7130314512,GILROY ENERGY CENTER LLC FOR RIVERVIEW ENERGY CTR,Riverview Energy Center,221112,Electricity Generation via Combustion,38.01453,-121.79008,OP,2008,52537613,1,Turbine,COMBUSTION GAS TURBINE LM 6000,500,E6BTU/HR,OP,,,,A,R,NOX,Nitrogen Oxides,2.953,TON,2023EPA_EGU
CA,6,,6013,Contra Costa,148911,CARB,7130311866,LOS MEDANOS ENERGY CENTER,LOS MEDANOS ENERGY CENTER,221112,Electricity Generation via Combustion,38.0298,-121.8727,OP,2008,51468613,3,Turbine,GAS TURBINE,165,MW,OP,,,,A,R,NOX,Nitrogen Oxides,41.341,TON,2023EPA_EGU
CA,6,,6013,Contra Costa,17414411,CARB,7130319169,MARSH LANDING LLC (MARSH LANDING GENERATING STA ),MARSH LANDING LLC (MARSH LANDING GENERATING STA ),221112,Electricity Generation via Combustion,38.0171,-121.7651,OP,,120129713,4,Turbine,COMBUSTION TURBINE GENERATOR (CTG) #4,2200,E6BTU/HR,OP,,,,A,R,NOX,Nitrogen Oxides,2.762,TON,2023EPA_EGU
IA,19,,19013,Black Hawk,12806211,IADNR,07-02-005-01,CEDAR FALLS UTILITIES,CEDAR FALLS MUNICIPAL ELECTRIC UTILITY,221112,Electricity Generation via Combustion,42.52795,-92.43862,OP,,67677813,10.1A,Boiler,STREETER UNIT 7 BOILER (COAL FIRED),434,E6BTU/HR,OP,,,,A,R,NOX,Nitrogen Oxides,19.289,TON,2023EPA_EGU
IA,19,,19013,Black Hawk,5524311,IADNR,07-01-038,MIDAMERICAN ENERGY COMPANY,MIDAMERICAN ENERGY CO - ELECTRIFARM TURBINES,221112,Electricity Generation via Combustion,42.44084,-92.41989,OP,2008,27492413,3,Turbine,UNIT 3 TURBINE,925,E6BTU/HR,OP,,,,A,R,NOX,Nitrogen Oxides,7.434,TON,2023EPA_EGU
FL,12,,12127,Volusia,845211,FLDEP,1270009,Florida Power & Light Company,FLORIDA POWER & LIGHT (PSN),221112,Electricity Generation via Combustion,28.8419,-81.3256,OP,2008,46194113,9,Combined Cycle (Boiler/Gas Turbine),Unit PSNCT5A Combined Cycle CT with unfired HRSG (250 MW),2200,E6BTU/HR,OP,2008,,,A,R,NOX,Nitrogen Oxides,96.839,TON,2023EPA_EGU
FL,12,,12127,Volusia,845211,FLDEP,1270009,Florida Power & Light Company,FLORIDA POWER & LIGHT (PSN),221112,Electricity Generation via Combustion,28.8419,-81.3256,OP,2008,46194613,12,Combined Cycle (Boiler/Gas Turbine),Unit PSNCT5D Combined Cycle CT with unfired HRSG (250 MW),2200,E6BTU/HR,OP,2008,,,A,R,NOX,Nitrogen Oxides,93.891,TON,2023EPA_EGU
FL,12,,12127,Volusia,845211,FLDEP,1270009,Florida Power & Light Company,FLORIDA POWER & LIGHT (PSN),221112,Electricity Generation via Combustion,28.8419,-81.3256,OP,2008,67203913,5,Combined Cycle (Boiler/Gas Turbine),Unit PSNCT4A Combined Cycle CT with unfired HRSG (250 MW),2200,E6BTU/HR,OP,2008,,,A,R,NOX,Nitrogen Oxides,109.351,TON,2023EPA_EGU
GA,13,,13127,Glynn,3721111,GADNR,12700004,Georgia Power Company,Ga Power Company - Plant McManus,221112,Electricity Generation via Combustion,31.2141,-81.5451,OP,2023,36834213,CT3C,Turbine,Combustion Turbine Unit 3C,46,MW,OP,2023,,,A,R,NOX,Nitrogen Oxides,2.862,TON,2023EPA_EGU
AL,1,,1129,Washington,949511,ADEM,18,Alabama Power Company,Alabama Power Company,221112,Electricity Generation via Combustion,31.263955,-88.002678,OP,2008,47870713,X001,Combined Cycle (Boiler/Gas Turbine),Combustion Turbine with Duct Burner,1240,E6BTU/HR,OP,,,,A,R,NOX,Nitrogen Oxides,105.838,TON,2023EPA_EGU
NC,37,,37129,New Hanover,8547211,NCDAQ,3712900036,"Duke Energy Progress, LLC","Duke Energy Progress, LLC - L.V. Sutton Electric Plant",221112,Electricity Generation via Combustion,34.283317,-77.985226,OP,2008,129290213,G-224,Turbine,"One natural gas/No. 2 fuel oil-fired simple-cycle internal combustion turbine [NSPS KKKK, NSPS TTTT]",521,E6BTU/HR,OP,,,,A,R,NOX,Nitrogen Oxides,0.625,TON,2023EPA_EGU
PA,42,,42079,Luzerne,12800611,PADEP,420790001,HUNLOCK ENERGY LLC,HUNLOCK ENERGY LLC/HUNLOCK,221112,Electricity Generation via Combustion,41.20334,-76.06848,OP,,67507313,CT01,Turbine,SIMPLE CYCLE COMBUSTION TURBINE W/ WATER INJECTION,471,E6BTU/HR,OP,2023,,,A,R,NOX,Nitrogen Oxides,20.751,TON,2023EPA_EGU
PA,42,,42079,Luzerne,4744211,PADEP,420790202,HAZLETON GENERATION LLC,HAZLETON GEN LLC/HAZLE TWP,221112,Electricity Generation via Combustion,40.92814,-76.0415,OP,2008,67500613,102A,Turbine,GAS TURBINE 2 DUAL-FUEL TURBN W/WATER INJ. W/INLET FOGGING,375,E6BTU/HR,OP,2023,,,A,R,NOX,Nitrogen Oxides,1.493,TON,2023EPA_EGU
PA,42,,42079,Luzerne,4744211,PADEP,420790202,HAZLETON GENERATION LLC,HAZLETON GEN LLC/HAZLE TWP,221112,Electricity Generation via Combustion,40.92814,-76.0415,OP,2008,67500813,104A,Turbine,GAS TURBINE 4 DUAL-FUEL TURBN W/WATER INJ. W/INLET FOGGING,375,E6BTU/HR,OP,2023,,,A,R,NOX,Nitrogen Oxides,1.76,TON,2023EPA_EGU
WI,55,,55071,Manitowoc,7179611,WIDNR,436035930,Manitowoc Public Utilities,MANITOWOC PUBLIC UTILITIES,221112,Electricity Generation via Combustion,44.0813,-87.6568,OP,2023,64983613,B28,Boiler,Boiler 8 - 200 KLB-HR (MCR) 900# ATMOSPHERIC CIRCULATING FLUIDIZED BED BOILER  EI: ATMOSPHERIC CIRCU,40,E6BTU/HR,OP,2023,,,A,R,NOX,Nitrogen Oxides,57.068,TON,2023EPA_EGU
FL,12,,12073,Leon,715111,FLDEP,730003,City Of Tallahassee,CITY OF TALLAHASSEE,221112,Electricity Generation via Combustion,30.451976,-84.399472,OP,2008,67190613,33,Turbine,GE 7FA Gas Turbine,1900,E6BTU/HR,OP,2008,,,A,R,NOX,Nitrogen Oxides,82.619,TON,2023EPA_EGU
LA,22,,22073,Ouachita,7205111,LADEQ08,83613,Entergy Arkansas LLC,Entergy Arkansas LLC - Ouachita Power Generating Plant,221112,Electricity Generation via Combustion,32.7063,-92.0682,OP,2023,87201313,SR0003,Turbine,Combustion Turbine Unit 2,2000,E6BTU/HR,OP,,,,A,R,NOX,Nitrogen Oxides,73.916,TON,2023EPA_EGU
MS,28,,28073,Lamar,7154411,MSDEQ,2807300021,AI001104,"COOPERATIVE ENERGY, A MISSISSIPPI ELECTR",221112,Electricity Generation via Combustion,31.2178,-89.3938,OP,2018,156971413,AA-012,Turbine,4122MMBTU NGF TURBINE,4120,E6BTU/HR,OP,,,,A,R,NOX,Nitrogen Oxides,172.081,TON,2023EPA_EGU
WV,54,,54073,Pleasants,4782811,WVDAQ,5,Omnis Pleasants LLC,Pleasants Power Station,221112,Electricity Generation via Combustion,39.3668,-81.2944,OP,2008,71785513,1,Boiler,PLEASANTS UNIT 1,6240,E6BTU/HR,OP,2018,,,A,R,NOX,Nitrogen Oxides,2294.277,TON,2023EPA_EGU
WV,54,,54073,Pleasants,4782811,WVDAQ,5,Omnis Pleasants LLC,Pleasants Power Station,221112,Electricity Generation via Combustion,39.3668,-81.2944,OP,2008,71785613,2,Boiler,PLEASANTS UNIT 2,6240,E6BTU/HR,OP,2018,,,A,R,NOX,Nitrogen Oxides,2266.283,TON,2023EPA_EGU
WV,54,,54099,Wayne,6341811,WVDAQ,80,"BIG SANDY PEAKER, LLC",BIG SANDY PEAKER PLANT,221112,Electricity Generation via Combustion,38.3441,-82.5939,OP,2008,71744913,11,Turbine,TURBINE GS-06-1,300,E6BTU/HR,OP,,,,A,R,NOX,Nitrogen Oxides,18.834,TON,2023EPA_EGU
WV,54,,54099,Wayne,6341811,WVDAQ,80,"BIG SANDY PEAKER, LLC",BIG SANDY PEAKER PLANT,221112,Electricity Generation via Combustion,38.3441,-82.5939,OP,2008,71745713,6,Turbine,TURBINE GS-03-2,300,E6BTU/HR,OP,,,,A,R,NOX,Nitrogen Oxides,17.501,TON,2023EPA_EGU
WV,54,,54099,Wayne,6341911,WVDAQ,81,Appalachian Power Company,Appalachian Power Company - CEREDO ELECTRIC GENERATING STATION,221112,Electricity Generation via Combustion,38.3681,-82.5339,OP,2008,71750613,01S,Turbine,GAS TURBINE 1S,1110,E6BTU/HR,OP,,,,A,R,NOX,Nitrogen Oxides,38.376,TON,2023EPA_EGU
WV,54,,54099,Wayne,6341911,WVDAQ,81,Appalachian Power Company,Appalachian Power Company - CEREDO ELECTRIC GENERATING STATION,221112,Electricity Generation via Combustion,38.3681,-82.5339,OP,2008,71750913,04S,Turbine,GAS TURBINE 4S,1110,E6BTU/HR,OP,,,,A,R,NOX,Nitrogen Oxides,38.835,TON,2023EPA_EGU
MO,29,,29037,Cass,7359211,MODNR,56,"Dogwood Energy, LLC",DOGWOOD ENERGY FACILITY,221112,Electricity Generation via Combustion,38.7931,-94.3006,OP,2009,10993813,1,Turbine,EP1-Combustion Turbine / HRSG #1,2370,E6BTU/HR,OP,,,,A,R,NOX,Nitrogen Oxides,71.878,TON,2023EPA_EGU
CA,6,,6073,San Diego,13562011,CARB,3712277112,ESCONDIDO ENERGY CENTER LLC,ESCONDIDO ENERGY CENTER LLC,221112,Electricity Generation via Combustion,33.12835,-117.12021,OP,,78551213,976038,Turbine,GAS TURBINE (TWIN PACK): PRATT & WHITNEY,688,E6BTU/HR,OP,,,,A,R,NOX,Nitrogen Oxides,1.251,TON,2023EPA_EGU
CA,6,,6073,San Diego,13562611,CARB,3712278013,SDG&E - FACILITY ENVIRONMENTAL OPERATIONS,SDG&E PALOMAR ENERGY CENTER,221118,Electricity Generation via Combustion,33.1195,-117.1174,OP,,78684413,1625,Turbine,FACILITY-WIDE PERMITTED DEVICES,2030,E6BTU/HR,OP,,,,A,R,NOX,Nitrogen Oxides,12.51,TON,2023EPA_EGU
CA,6,,6073,San Diego,17193811,CARB,3712276289,"J-POWER USA DEVELOPMENT CO, LTD",ORANGE GROVE ENERGY LP,221112,Electricity Generation via Combustion,33.3594,-117.1114,OP,,145869113,890,Turbine,ONE NATURAL GAS SIMPLE CYCLE COMBUSTION,530,E6BTU/HR,OP,,,,A,R,NOX,Nitrogen Oxides,0.542,TON,2023EPA_EGU
CA,6,,6073,San Diego,17193811,CARB,3712276289,"J-POWER USA DEVELOPMENT CO, LTD",ORANGE GROVE ENERGY LP,221112,Electricity Generation via Combustion,33.3594,-117.1114,OP,,145869013,889,Turbine,ONE NATURAL GAS SIMPLE CYCLE COMBUSTION,530,E6BTU/HR,OP,,,,A,R,NOX,Nitrogen Oxides,0.52,TON,2023EPA_EGU
IN,18,,18073,Jasper,7957011,INDEM,8,Na,Northern Indiana Public Service Company LLC - RM Schahfer Generating Station,221112,Electricity Generation via Combustion,41.2175,-87.0239,OP,2020,3009713,3,Turbine,UNIT 16A,1450,E6BTU/HR,OP,2020,,,A,R,NOX,Nitrogen Oxides,12.444,TON,2023EPA_EGU
TN,47,,47073,Hawkins,4188311,TNDEC,37-0007,TVA JOHN SEVIER FOSSIL PLANT,TVA - John Sevier Combined Cycle Plant,221112,Electricity Generation via Combustion,36.374,-82.966,OP,2008,105932313,10,Combined Cycle (Boiler/Gas Turbine),UNIT 3 COMBINED-CYCLE CT UNIT W/ DUCT BURNER & HRSG BYPASS OPTION,2280,E6BTU/HR,OP,,,,A,R,NOX,Nitrogen Oxides,52.738,TON,2023EPA_EGU
MI,26,,26075,Jackson,5695811,MIDEQ,N6626,Consumers Energy Company,Consumers Energy Co. - Jackson Generating Station,221112,Electricity Generation via Combustion,42.2488,-84.3767,OP,2020,140335313,EU0012,Combined Cycle (Boiler/Gas Turbine),Natural gas-fired 7EA combustion turbine and associated duct burner.  See the comments below.,1290,E6BTU/HR,OP,2020,,,A,R,NOX,Nitrogen Oxides,60.042,TON,2023EPA_EGU
PA,42,,42075,Lebanon,3897711,PADEP,420750069,AES Ironwood LLC,HELIX IRONWOOD LLC/LEBANON,221112,Electricity Generation via Combustion,40.3509,-76.3658,OP,2008,37131813,T002,Turbine,NO. 2 COMBUSTION TURBINE,3120,E6BTU/HR,OP,2023,,,A,R,NOX,Nitrogen Oxides,88.959,TON,2023EPA_EGU
FL,12,,12011,Broward,591611,FLDEP,110036,Florida Power & Light Company,FLORIDA POWER & LIGHT (PPE),221112,Electricity Generation via Combustion,26.085278,-80.126111,OP,2008,106523613,20,Turbine,Unit 5A nominal 250 MW CTG and HRSG,2580,E6BTU/HR,OP,2019,,,A,R,NOX,Nitrogen Oxides,47.208,TON,2023EPA_EGU
FL,12,,12011,Broward,591711,FLDEP,110037,Florida Power & Light Company,FLORIDA POWER & LIGHT COMPANY,221112,Electricity Generation via Combustion,26.0705,-80.1974,OP,2008,125612913,49,Turbine,Simple cycle combustion turbine electric generator (Unit 6E),2340,E6BTU/HR,OP,,,,A,R,NOX,Nitrogen Oxides,12.426,TON,2023EPA_EGU
NJ,34,,34011,Cumberland,18994411,NJDEP,75808,,VMEU - Clayville Station,221112,Electricity Generation via Combustion,39.425086,-75.019558,OP,2023,137443913,U1,Unclassified,,628,E6BTU/HR,OP,2023,,,A,R,NOX,Nitrogen Oxides,5.055,TON,2023EPA_EGU
AZ,4,,4013,Maricopa,10704311,AZMCAQD,1522,Mesquite Power LLC,Mesquite Generating Station,221112,Electricity Generation via Combustion,33.3451,-112.8638,OP,2008,58713713,45927,Turbine,"POWER GENERATION, NATURAL GAS-FIRED COMBUSTION TURBINE #6, NATURAL GAS; 2017 iv_proc_id 297267, pr",185,E6BTU/HR,OP,,,,A,R,NOX,Nitrogen Oxides,68.161,TON,2023EPA_EGU
GA,13,,13033,Burke,15028311,GADNR,3300008,,Southern Nuclear - Allen B. Wilson Plant,221112,Electricity Generation via Combustion,33.1377,-81.7483,OP,2023,91734613,CT-1A,Turbine,Combustion Turbine 1A,60,MW,OP,2023,,,A,R,NOX,Nitrogen Oxides,3.111,TON,2023EPA_EGU
MD,24,,24033,Prince Georges,17878311,MDDOE,033-2737,"Keys Energy Center, LLC",PSEG Keys Energy Center,221112,Electricity Generation via Combustion,38.7033,-76.8275,OP,2019,125599413,033-2737-5-1578,Combined Cycle (Boiler/Gas Turbine),239 Turbine - Jet Engine,3100,E6BTU/HR,OP,2022,,,A,R,NOX,Nitrogen Oxides,47.261,TON,2023EPA_EGU
NJ,34,,34023,Middlesex,17798211,NJDEP,18940,,Woodbridge Energy Center,221112,Electricity Generation via Combustion,40.51505,-74.31887,OP,2023,124746613,U1,Unclassified,,5610,E6BTU/HR,OP,2023,,,A,R,NOX,Nitrogen Oxides,76.576,TON,2023EPA_EGU
WI,55,,55105,Rock,9018711,WIDNR,154099880,,WPL - RIVERSIDE ENERGY CENTER,221112,Electricity Generation via Combustion,42.5831,-89.0358,OP,2023,137299113,P20,Combined Cycle (Boiler/Gas Turbine),Natural gas fired combustion turbine with heat recovery steam generator (CTG-03).,2520,E6BTU/HR,OP,2021,,,A,R,NOX,Nitrogen Oxides,41.067,TON,2023EPA_EGU
NE,31,,31109,Lancaster,5281411,NELLCHD,130,Lincoln Electric System,LES Rokeby Generating Station,221112,Electricity Generation via Combustion,40.7319,-96.7361,OP,2008,91231513,2,Turbine,Unit 2 Turbine,882,E6BTU/HR,OP,1995,,,A,R,NOX,Nitrogen Oxides,31.967,TON,2023EPA_EGU
TX,48,,48189,Hale,15625011,TXCEQ,39,GOLDEN SPREAD ELECTRIC COOPERATIVE INC,ANTELOPE STATION,221112,Electricity Generation via Combustion,33.864481,-101.840711,OP,2011,123094113,21,Turbine,COMBUSTION TURBINE 1,1940,E6BTU/HR,OP,2015,,,A,R,NOX,Nitrogen Oxides,48.239,TON,2023EPA_EGU
TX,48,,48027,Bell,16861111,TXCEQ,670,TEMPLE GENERATION SF LLC,PANDA TEMPLE POWER STATION,221112,Electricity Generation via Combustion,31.055833,-97.317222,OP,2009,113223913,2,Turbine,COMBINED CYCLE UNIT NO. 1,2840,E6BTU/HR,OP,2014,,,A,R,NOX,Nitrogen Oxides,52.71,TON,2023EPA_EGU
TX,48,,48027,Bell,16861111,TXCEQ,670,TEMPLE GENERATION SF LLC,PANDA TEMPLE POWER STATION,221112,Electricity Generation via Combustion,31.055833,-97.317222,OP,2009,113224013,3,Turbine,COMBINED CYCLE UNIT NO. 2,2840,E6BTU/HR,OP,2014,,,A,R,NOX,Nitrogen Oxides,50.408,TON,2023EPA_EGU
UT,49,,49027,Millard,7558311,UTDAQ,10327,Intermountain Power Service Corporation,Intermountain Power Service Corporation- Intermountain Generation Station,221112,Electricity Generation via Combustion,39.5103,-112.5804,OP,2011,11959313,2382,Boiler,Utility Boiler Coal Fired,950000,KW,OP,,,,A,R,NOX,Nitrogen Oxides,2720.521,TON,2023EPA_EGU
UT,49,,49027,Millard,7558311,UTDAQ,10327,Intermountain Power Service Corporation,Intermountain Power Service Corporation- Intermountain Generation Station,221112,Electricity Generation via Combustion,39.5103,-112.5804,OP,2011,11959213,2381,Boiler,Utility Boiler Coal Fired,950000,KW,OP,,,,A,R,NOX,Nitrogen Oxides,2499.055,TON,2023EPA_EGU
CA,6,,6031,Kings,17611,CARB,1614304140,"MRP SAN JOAQUIN ENERGY, LLC, HANFORD ENERGY PARK PEAKER PLAN","MRP SAN JOAQUIN ENERGY, LLC",221118,Electricity Generation via Combustion,36.2704,-119.6474,OP,2008,52140513,1,Unclassified,47.5 MW NG TURBINE GENERATOR,47.5,MW,OP,,,,A,R,NOX,Nitrogen Oxides,0.193,TON,2023EPA_EGU
CA,6,,6031,Kings,17611,CARB,1614304140,"MRP SAN JOAQUIN ENERGY, LLC, HANFORD ENERGY PARK PEAKER PLAN","MRP SAN JOAQUIN ENERGY, LLC",221118,Electricity Generation via Combustion,36.2704,-119.6474,OP,2008,52140613,2,Unclassified,47.5 MW NG TURBINE GENERATOR,47.5,MW,OP,,,,A,R,NOX,Nitrogen Oxides,0.185,TON,2023EPA_EGU
FL,12,,12031,Duval,15032711,FLDEP,310561,JEA,JEA - GREENLAND ENERGY CENTER,221112,Electricity Generation via Combustion,30.1599,-81.5168,OP,2011,91837113,1,Turbine,#1 GE Simple cycle gas turbine electrical generator,1810,E6BTU/HR,OP,2011,,,A,R,NOX,Nitrogen Oxides,49.228,TON,2023EPA_EGU
IL,17,,17031,Cook,946411,ILEPA,031012ABI,,Ingredion Inc,311221,Wet Corn Mill,41.775132,-87.822356,OP,2008,59371113,234,Boiler,1 Boiler #10 : Utilities,800,E6BTU/HR,OP,,,,A,R,NOX,Nitrogen Oxides,185.804,TON,2023EPA_EGU
SC,45,,45031,Darlington,4951511,SCDHEC,0820-0002,Carolina Power & Light Company,DUKE ENERGY PROGRESS LLC - HB ROBINSON/DARLINGTON,221112,Electricity Generation via Combustion,34.4103,-80.1621,OP,2014,28949913,17,Turbine,IC TURBINE 12-DARLINGTON,1520,E6BTU/HR,OP,2015,,,A,R,NOX,Nitrogen Oxides,7.379,TON,2023EPA_EGU
IA,19,,19033,Cerro Gordo,10702411,IADNR,17-02-016,IPL/ALLIANT ENERGY CORP,IPL - EMERY GENERATING STATION,221112,Electricity Generation via Combustion,43.0942,-93.2931,OP,2008,58602113,EU-2,Boiler,COMBUSTION TURBINE 2,2050,E6BTU/HR,OP,,,,A,R,NOX,Nitrogen Oxides,46.397,TON,2023EPA_EGU
LA,22,,22033,East Baton Rouge,5160611,LADEQ08,1186,Entergy Louisiana LLC,EthosEnergy Power Operations (West) LLC - Louisiana Station Electrical Generatin,221112,Electricity Generation via Combustion,30.489753,-91.187548,OP,2023,80696913,SR1005,Turbine,Unit 4A Gas Turbine/HRSG,2150,E6BTU/HR,OP,,,,A,R,NOX,Nitrogen Oxides,469.928,TON,2023EPA_EGU
WV,54,,54033,Harrison,6271711,WVDAQ,15,MONONGAHELA POWER CO. - HARRISON,MONONGAHELA POWER CO. - HARRISON,221112,Electricity Generation via Combustion,39.38417,-80.3325,OP,2023,71923313,2,Boiler,BOILER #2,6320,E6BTU/HR,OP,2021,,,A,R,NOX,Nitrogen Oxides,1411.72,TON,2023EPA_EGU
NE,31,,31025,Cass,9445711,NEDEQ,70919,Omaha Public Power District,OPPD Cass County Station,221112,Electricity Generation via Combustion,40.9479,-95.9646,OP,2012,55517113,2,Turbine,EU CT-2: #2 Gas Turbine,2060,E6BTU/HR,OP,2012,,,A,R,NOX,Nitrogen Oxides,33.904,TON,2023EPA_EGU
AL,1,,1001,Autauga,10708711,ADEM,9,Tenaska Alabama II Partners LP,Alabama Power Company,221112,Electricity Generation via Combustion,32.650024,-86.738287,OP,2008,58649613,X001A,Combined Cycle (Boiler/Gas Turbine),Unit 1,2290,E6BTU/HR,OP,,,,A,R,NOX,Nitrogen Oxides,54.439,TON,2023EPA_EGU
MA,25,,25013,Hampden,5979211,MADEP,420001,MASS MUNICIPAL WHOLESALE ELECTRIC CO,STONY BROOK ENERGY CENTER,221112,Electricity Generation via Combustion,42.19774,-72.510569,OP,2020,87356213,2,Turbine,COMBUSTION TURBINE #1B- GE MS7001E DUAL FUEL,952,E6BTU/HR,OP,1981,,,A,R,NOX,Nitrogen Oxides,2.84,TON,2023EPA_EGU
MN,27,,27099,Mower,7003311,MNPCA,2709900048,Great River Energy,Great River Energy - Pleasant Valley Station,221112,Electricity Generation via Combustion,43.79932,-92.683,OP,2008,14227913,EU003,Turbine,CT13 Simple Cycle Combustion Turbine SW 501D5A,134000,KW,OP,,,,A,R,NOX,Nitrogen Oxides,6.821,TON,2023EPA_EGU
OK,40,,40079,Le Flore,8148711,OKDEQ,11,OG AND E,RIVER VALLEY GENERATING STATION,221112,Electricity Generation via Combustion,35.1929,-94.6469,OP,2008,5950413,8316,Boiler,Boiler 1B  B-02-01B    EUG-2,858,E6BTU/HR,OP,2002,,,A,R,NOX,Nitrogen Oxides,152.126,TON,2023EPA_EGU
ME,23,,23017,Oxford,5759211,MEDEP,A-000724,Rumford Power Associates LP,RUMFORD POWER,221112,Electricity Generation via Combustion,44.5303,-70.5219,OP,2022,22605313,1,Turbine,TURBINE #1,1980,E6BTU/HR,OP,2022,,,A,R,NOX,Nitrogen Oxides,24.175,TON,2023EPA_EGU
MA,25,,25017,Middlesex,5646011,MADEP,1190093,"KENDALL GREEN ENERGY, LLC",KENDALL GREEN ENERGY LLC,221112,Electricity Generation via Combustion,42.363464,-71.079669,OP,2020,87559513,3,Boiler,BOILER #3-BABCOCK  AND WILCOX S-9836  DUAL FUEL,409,E6BTU/HR,OP,1954,,,A,R,NOX,Nitrogen Oxides,4.917,TON,2023EPA_EGU
OH,39,,39017,Butler,17967111,OHEPA,1409001151,,"Ohio Power Partners, LLC (1409001151)",221112,Electricity Generation via Combustion,39.46927,-84.354,OP,2014,134964213,P001,Turbine,"Combined-cycle combustion turbine generator (CTG) with heat recovery steam generator (HRSG), nat...",3280,E6BTU/HR,OP,,,,A,R,NOX,Nitrogen Oxides,67.65,TON,2023EPA_EGU
OH,39,,39017,Butler,9303411,OHEPA,1409000896,,"Duke Energy Indiana, Madison Generating Station (1409000896)",221112,Electricity Generation via Combustion,39.4523,-84.4634,OP,2000,55575113,P008,Turbine,84.65  Megawatt (Nominal) simple-cycle combustion turbine No. 8,1180,E6BTU/HR,OP,,,,A,R,NOX,Nitrogen Oxides,25.219,TON,2023EPA_EGU
IL,17,,17199,Williamson,8164511,ILEPA,199856AAC,Southern Illinois Power Cooperative,Southern Illinois Power Coop,221112,Electricity Generation via Combustion,37.619778,-88.953071,OP,2008,60406413,13,Turbine,Turbine #6,969,E6BTU/HR,OP,,,,A,R,NOX,Nitrogen Oxides,5.878,TON,2023EPA_EGU
TX,48,,48215,Hidalgo,7908611,TXCEQ,84,FRONTERA GENERATION LP,FRONTERA ENERGY CENTER,221112,Electricity Generation via Combustion,26.208222,-98.398494,OP,1998,2580513,1,Reciprocating IC Engine,FRONTERA ENERGY CENTER,1870,E6BTU/HR,OP,2000,,,A,R,NOX,Nitrogen Oxides,48.127,TON,2023EPA_EGU
TX,48,,48257,Kaufman,9146511,TXCEQ,680,LUMINANT GENERATION COMPANY LLC,FORNEY POWER PLANT,221112,Electricity Generation via Combustion,32.756361,-96.491269,OP,2004,57545013,3,Combined Cycle (Boiler/Gas Turbine),COMBUSTION TURBINE 13,2440,E6BTU/HR,OP,2003,,,A,R,NOX,Nitrogen Oxides,210.546,TON,2023EPA_EGU
TX,48,,48279,Lamb,4930011,TXCEQ,18,SOUTHWESTERN PUBLIC SERVICE COMPANY,TOLK STATION POWER PLANT,221112,Electricity Generation via Combustion,34.184964,-102.569754,OP,1979,30286513,1,Boiler,BOILER--GENERATOR #1,5890,E6BTU/HR,OP,1981,,,A,R,NOX,Nitrogen Oxides,1191.753,TON,2023EPA_EGU
GA,13,,13293,Upson,15525911,GADNR,29300027,,Edward L. Addison Generating Plant,221112,Electricity Generation via Combustion,32.9109,-84.30667,OP,2023,97468713,T001,Turbine,Combustion Turbine Unit 1,167,MW,OP,2023,,,A,R,NOX,Nitrogen Oxides,4.289,TON,2023EPA_EGU
GA,13,,13293,Upson,15525911,GADNR,29300027,,Edward L. Addison Generating Plant,221112,Electricity Generation via Combustion,32.9109,-84.30667,OP,2023,97469013,T004,Turbine,Combustion Turbine Unit 4,167,MW,OP,2023,,,A,R,NOX,Nitrogen Oxides,19.51,TON,2023EPA_EGU
GA,13,,13303,Washington,15504111,GADNR,30300039,,"Washington County Power, LLC",221112,Electricity Generation via Combustion,33.09222,-82.9805,OP,2003,97063613,T2,Turbine,Natural Gas Fired Simple Cycle Combustion Turbine,1940,E6BTU/HR,OP,2003,,,A,R,NOX,Nitrogen Oxides,5.832,TON,2023EPA_EGU
TX,48,,48303,Lubbock,4030611,TXCEQ,3,SOUTHWESTERN PUBLIC SERVICE COMPANY,JONES STATION POWER PLANT,221112,Electricity Generation via Combustion,33.524242,-101.738328,OP,1979,99365313,10,Turbine,UNIT 3 COMBUSTION TURBINE,2100,E6BTU/HR,OP,2011,,,A,R,NOX,Nitrogen Oxides,44.116,TON,2023EPA_EGU
TX,48,,48335,Mitchell,4204911,TXCEQ,1,LUMINANT GENERATION COMPANY LLC,MORGAN CREEK STEAM ELECTRIC STATION,221112,Electricity Generation via Combustion,32.33358,-100.91332,OP,1980,35744713,8,Turbine,COMBUSTION TURBINE #3,1090,E6BTU/HR,OP,1986,,,A,R,NOX,Nitrogen Oxides,74.409,TON,2023EPA_EGU
TX,48,,48361,Orange,5730811,TXCEQ,7,ENTERGY TEXAS INC,SABINE PLANT,221112,Electricity Generation via Combustion,30.023611,-93.876111,OP,1980,21860513,6,Boiler,STEAM GENERATOR NO. 5,4980,E6BTU/HR,OP,2001,,,A,R,NOX,Nitrogen Oxides,334.086,TON,2023EPA_EGU
TX,48,,48361,Orange,5730811,TXCEQ,7,ENTERGY TEXAS INC,SABINE PLANT,221112,Electricity Generation via Combustion,30.023611,-93.876111,OP,1980,21860813,4,Boiler,STEAM GENERATOR NO. 3,3990,E6BTU/HR,OP,2001,,,A,R,NOX,Nitrogen Oxides,328.388,TON,2023EPA_EGU
LA,22,,22079,Rapides,7446811,LADEQ08,2922,CLECO Power LLC,CLECO Power LLC - Brame Energy Center,221112,Electricity Generation via Combustion,31.3973,-92.7189,OP,2023,81274013,UNIT2,Boiler,1-74  Unit 2 Boiler,6530,E6BTU/HR,OP,,,,A,R,NOX,Nitrogen Oxides,1919.472,TON,2023EPA_EGU
AR,5,,5103,Ouachita,976411,ARDEQ,510300055,Arkansas Electric Cooperative Corporation,JOHN L MCCLELLAN GENERATING STA-CAMDEN,221112,Electricity Generation via Combustion,33.564294,-92.791966,OP,2010,47097013,1,Boiler,SN:01 MAIN BOILER,1395,E6BTU/HR,OP,2010,,,A,R,NOX,Nitrogen Oxides,80.597,TON,2023EPA_EGU
TX,48,,48315,Marion,5613211,TXCEQ,1,SOUTHWESTERN ELECTRIC POWER COMPANY,WILKES POWER PLANT,221112,Electricity Generation via Combustion,32.848611,-94.546944,OP,1980,22160113,3,Boiler,WILKES UNIT #1,1560,E6BTU/HR,OP,1993,,,A,R,NOX,Nitrogen Oxides,119.669,TON,2023EPA_EGU
TX,48,,48347,Nacogdoches,13389311,TXCEQ,35,CITY OF AUSTIN,NACOGDOCHES GENERATING FACILITY,221112,Electricity Generation via Combustion,31.832369,-94.902281,OP,2013,106746813,3,Boiler,BUBBLING FLUIDIZED BED BOILER,1370,E6BTU/HR,OP,2015,,,A,R,NOX,Nitrogen Oxides,153.657,TON,2023EPA_EGU
TX,48,,48375,Potter,5678011,TXCEQ,4,SOUTHWESTERN PUBLIC SERVICE COMPANY,NICHOLS STATION POWER PLANT,221112,Electricity Generation via Combustion,35.283333,-101.745833,OP,1979,22149413,4,Boiler,NICHOLS STATION UNIT 1,1120,E6BTU/HR,OP,1986,,,A,R,NOX,Nitrogen Oxides,162.682,TON,2023EPA_EGU
VA,51,,51670,Hopewell city,10633611,VADEQ,51019,Dominion-Hopewell Power Station,Dominion-Hopewell Power Station,221112,Electricity Generation via Combustion,37.29735,-77.28348,OP,2005,58466313,2,Boiler,Boiler 2 Stoker,391,E6BTU/HR,OP,,,,A,R,NOX,Nitrogen Oxides,159.456,TON,2023EPA_EGU
MN,27,,27085,McLeod,7626711,MNPCA,2708500034,,Hutchinson Utilities Commission -Plant 2,221112,Electricity Generation via Combustion,44.8899,-94.3527,OP,2008,11448813,EU001,Turbine,"Main turbine, single and combined cycles",52000,KW,OP,,,,A,R,NOX,Nitrogen Oxides,13.926,TON,2023EPA_EGU
FL,12,,12086,Miami-Dade,900011,FLDEP,250003,Florida Power & Light Company,FLORIDA POWER & LIGHT (PTF),221112,Electricity Generation via Combustion,25.435833,-80.331111,OP,2008,67219213,11,Turbine,Unit 5C Combustion Turbine with HRSG (Fossil),1880,E6BTU/HR,OP,2008,,,A,R,NOX,Nitrogen Oxides,41.073,TON,2023EPA_EGU
WI,55,,55089,Ozaukee,6229211,WIDNR,246004000,WE Energies,WE ENERGIES PORT WASHINGTON GENERATING STATION,221112,Electricity Generation via Combustion,43.38415,-87.86951,OP,2023,64827313,P11,Combined Cycle (Boiler/Gas Turbine),Gas-fired CT 11,2100,E6BTU/HR,OP,2012,,,A,R,NOX,Nitrogen Oxides,73.756,TON,2023EPA_EGU
WI,55,,55089,Ozaukee,6229211,WIDNR,246004000,WE Energies,WE ENERGIES PORT WASHINGTON GENERATING STATION,221112,Electricity Generation via Combustion,43.38415,-87.86951,OP,2023,64827713,P22,Combined Cycle (Boiler/Gas Turbine),Gas Fired CT22,2100,E6BTU/HR,OP,2012,,,A,R,NOX,Nitrogen Oxides,70.281,TON,2023EPA_EGU
SD,46,,46013,Brown,19068611,SDDENR,28.0801-03,,NorthWestern Energy,221112,Electricity Generation via Combustion,45.4287,-98.4934,OP,,138548913,2b,Turbine,,323,E6BTU/HR,OP,,,,A,R,NOX,Nitrogen Oxides,17.187,TON,2023EPA_EGU
AL,1,,1015,Calhoun,10569911,ADEM,73,,Alabama Power Company,221112,Electricity Generation via Combustion,33.58815,-85.97228,OP,2008,52270013,X001B,Turbine,Unit 2,1060,E6BTU/HR,OP,,,,A,R,NOX,Nitrogen Oxides,5.041,TON,2023EPA_EGU
KY,21,,21015,Boone,6040811,KYDAQ,2101500029,Dayton Power And Light Company,Duke Energy KY East Bend,221112,Electricity Generation via Combustion,38.905053,-84.851009,OP,2008,23832113,2,Boiler,Unit 2,6310,E6BTU/HR,OP,,,,A,R,NOX,Nitrogen Oxides,1410.015,TON,2023EPA_EGU
OK,40,,40015,Caddo,8536511,OKDEQ,214,PUBLIC SERVICE COMPANY OF OKLAHOMA,PSO SOUTHWESTERN POWER STATION,221112,Electricity Generation via Combustion,35.1009,-98.3524,OP,2008,479213,8757,Boiler,Electric Power Generation Unit NO 2,940,E6BTU/HR,OP,2002,,,A,R,NOX,Nitrogen Oxides,214.755,TON,2023EPA_EGU
OK,40,,40015,Caddo,1046611,OKDEQ,1699,WESTERN FARMERS ELECTRIC COOPERATIVE,WESTERN FARMERS ANADARKO PLANT,221112,Electricity Generation via Combustion,35.0836,-98.2287,OP,2008,46954813,10723,Turbine,Electric Power Generation Turbine UNIT6,852,E6BTU/HR,OP,2002,,,A,R,NOX,Nitrogen Oxides,14.392,TON,2023EPA_EGU
OK,40,,40015,Caddo,1046611,OKDEQ,1699,WESTERN FARMERS ELECTRIC COOPERATIVE,WESTERN FARMERS ANADARKO PLANT,221112,Electricity Generation via Combustion,35.0836,-98.2287,OP,2008,88766913,44123,Turbine,Simple Cycle Combustion Turbine UNIT10,463,E6BTU/HR,OP,2007,,,A,R,NOX,Nitrogen Oxides,9.783,TON,2023EPA_EGU
PA,42,,42015,Bradford,18038411,PADEP,420150093,HAMILTON LIBERTY LLC,HAMILTON LIBERTY LLC/HAMILTON LIBERTY LLC,221112,Electricity Generation via Combustion,41.767484,-76.390098,OP,,129182513,P104,Turbine,454 MW COMBUSTION TURBINE & DUCT BURNER,3140,E6BTU/HR,OP,2023,,,A,R,NOX,Nitrogen Oxides,65.44,TON,2023EPA_EGU
MI,26,,26105,Mason,4190311,MIDEQ,N4975,Michigan Power Limited Partnership,Michigan Power Limited Partnership,221112,Electricity Generation via Combustion,43.940277,-86.424333,OP,2020,157934113,EU0010,Turbine,A 1136.5 MMBTU/hr Natural Gas turbine exhausting through a heat recovery steam generator equipped wi,1070,E6BTU/HR,OP,,,,A,R,NOX,Nitrogen Oxides,135.279,TON,2023EPA_EGU
OK,40,,40143,Tulsa,7218011,OKDEQ,3594,GREEN COUNTRY ENERGY LLC,GREEN COUNTRY ENERGY PROJECT,221112,Electricity Generation via Combustion,35.98312,-95.93418,OP,2008,10019613,18814,Turbine,Generator 2 - Turbine with duct burner,265,MW,OP,2007,,,A,R,NOX,Nitrogen Oxides,137.036,TON,2023EPA_EGU
NC,37,,37145,Person,7826011,NCDAQ,3714500029,"Duke Energy Progress, LLC","Duke Energy Progress, LLC - Roxboro Steam Electric Plant",221112,Electricity Generation via Combustion,36.4833,-79.0731,OP,2008,2215413,G-30,Boiler,coal/No. 2 fuel oil-fired electric utility boiler (7035 million Btu per hour nominally rated heat in,7040,E6BTU/HR,OP,,,,A,R,NOX,Nitrogen Oxides,1023.129,TON,2023EPA_EGU
TN,47,,47145,Roane,4979111,TNDEC,73-0013,TVA KINGSTON FOSSIL PLANT,TVA - Kingston Fossil Plant,221112,Electricity Generation via Combustion,35.8992,-84.5169,OP,2008,30041813,6,Boiler,BOILERS #6,2060,E6BTU/HR,OP,,,,A,R,NOX,Nitrogen Oxides,108.464,TON,2023EPA_EGU
TN,47,,47145,Roane,4979111,TNDEC,73-0013,TVA KINGSTON FOSSIL PLANT,TVA - Kingston Fossil Plant,221112,Electricity Generation via Combustion,35.8992,-84.5169,OP,2008,30042313,9,Boiler,BOILERS #9,2060,E6BTU/HR,OP,,,,A,R,NOX,Nitrogen Oxides,82.218,TON,2023EPA_EGU
TN,47,,47145,Roane,4979111,TNDEC,73-0013,TVA KINGSTON FOSSIL PLANT,TVA - Kingston Fossil Plant,221112,Electricity Generation via Combustion,35.8992,-84.5169,OP,2008,30042513,7,Boiler,BOILERS #7,2060,E6BTU/HR,OP,,,,A,R,NOX,Nitrogen Oxides,44.161,TON,2023EPA_EGU
GA,13,,13147,Hart,2612411,GADNR,14700021,,Hartwell Energy Facility,221112,Electricity Generation via Combustion,34.33932,-82.81971,OP,2023,97989113,H101,Turbine,Unit 1 GE 7FA Turbine,159,MW,OP,2023,,,A,R,NOX,Nitrogen Oxides,47.738,TON,2023EPA_EGU
MI,26,,26147,St. Clair,7239211,MIDEQ,B6145,DTE Electric Company,DTE Electric Company - Greenwood Energy Center,221112,Electricity Generation via Combustion,43.105459,-82.697602,OP,2020,7533413,EU0009,Boiler,"Greenwood Energy Center Unit 1 boiler, nominally rated at 785 MW gross output; fueled by No. 2 fuel",785,MW,OP,2020,,,A,R,NOX,Nitrogen Oxides,692.873,TON,2023EPA_EGU
MI,26,,26147,St. Clair,7239111,MIDEQ,B2796,DTE Electric Company,ST. CLAIR / BELLE RIVER POWER PLANT,221112,Electricity Generation via Combustion,42.7687,-82.4855,OP,2020,7534613,EU0179,Turbine,DTE Dean CTG Unit 3 (UNIT 11-1),82.4,MW,OP,2020,,,A,R,NOX,Nitrogen Oxides,23.795,TON,2023EPA_EGU
MI,26,,26147,St. Clair,7239111,MIDEQ,B2796,DTE Electric Company,ST. CLAIR / BELLE RIVER POWER PLANT,221112,Electricity Generation via Combustion,42.7687,-82.4855,OP,2020,7536513,EU0169,Turbine,"Belle River Peaker, Natural Gas-Fired Turbine Generator, No 12-2",82.4,MW,OP,2020,,,A,R,NOX,Nitrogen Oxides,8.945,TON,2023EPA_EGU
MI,26,,26147,St. Clair,7239111,MIDEQ,B2796,DTE Electric Company,ST. CLAIR / BELLE RIVER POWER PLANT,221112,Electricity Generation via Combustion,42.7687,-82.4855,OP,2020,156639513,EU0234,Combined Cycle (Boiler/Gas Turbine),"(Blue Water) EUCTGHRSG2 is a 3,658 MMBTU/hr natural gas-fired combustion turbine generator (CTG) cou",3660,E6BTU/HR,OP,,,,A,R,NOX,Nitrogen Oxides,84.82,TON,2023EPA_EGU
GA,13,,13149,Heard,15558711,GADNR,14900004,,Tenaska Georgia Generating Station,221112,Electricity Generation via Combustion,33.3516,-84.9992,OP,2023,97957013,CT05,Turbine,Combustion Turbine No. 5,184,MW,OP,2023,,,A,R,NOX,Nitrogen Oxides,7.661,TON,2023EPA_EGU
GA,13,,13149,Heard,15559111,GADNR,14900005,,Hawk Road Energy Facility,221112,Electricity Generation via Combustion,33.35838,-84.9913,OP,2023,97988913,CT2,Turbine,Westinghouse 501 Simple Cycle Turbine (nat. gas only),179,MW,OP,2023,,,A,R,NOX,Nitrogen Oxides,16.302,TON,2023EPA_EGU
GA,13,,13149,Heard,15559111,GADNR,14900005,,Hawk Road Energy Facility,221112,Electricity Generation via Combustion,33.35838,-84.9913,OP,2023,97989013,CT3,Turbine,Westinghouse 501 Simple Cycle Turbine (nat. gas only),208,MW,OP,2023,,,A,R,NOX,Nitrogen Oxides,67.478,TON,2023EPA_EGU
NC,37,,37153,Richmond,8490411,NCDAQ,3715300070,"Duke Energy Progress, LLC","Duke Energy Progress, LLC - Richmond County Turbines",221112,Electricity Generation via Combustion,34.8387,-79.7396,OP,2008,281913,G-12,Turbine,"One natural gas/No. 2 fuel oil-fired simple-cycle internal combustion turbine (1,628 million Btu per",1630,E6BTU/HR,OP,,,,A,R,NOX,Nitrogen Oxides,46.804,TON,2023EPA_EGU
NC,37,,37153,Richmond,8490411,NCDAQ,3715300070,"Duke Energy Progress, LLC","Duke Energy Progress, LLC - Richmond County Turbines",221112,Electricity Generation via Combustion,34.8387,-79.7396,OP,2008,98738613,G-32,Turbine,"One natural gas/No. 2 fuel oil-fired simple/combined cycle internal combustion turbine, equipped wit",1.73,E6BTU/HR,OP,,,,A,R,NOX,Nitrogen Oxides,51.425,TON,2023EPA_EGU
GA,13,,13157,Jackson,8500711,GADNR,15700034,,Dahlberg Combustion Turbine Electric Generating Plant,221112,Electricity Generation via Combustion,34.042,-83.3978,OP,2023,965113,CT03,Turbine,Combustion Turbine Unit 3,75,MW,OP,2023,,,A,R,NOX,Nitrogen Oxides,3.835,TON,2023EPA_EGU
MI,26,,26159,Van Buren,9510111,MIDEQ,N6767,CONSUMERS ENERGY COMPANY,Covert Generating Station (N6767),221112,Electricity Generation via Combustion,42.3231,-86.2935,OP,2020,57848213,RG0020,Combined Cycle (Boiler/Gas Turbine),RG-Turb/DB2: Reporting Group for Unit 2 Turbine and duct burner,2930,E6BTU/HR,OP,2020,,,A,R,NOX,Nitrogen Oxides,58.862,TON,2023EPA_EGU
NC,37,,37159,Rowan,8508011,NCDAQ,3715900163,Southern Power Company,Plant Rowan County,221112,Electricity Generation via Combustion,35.7306,-80.6017,OP,2008,256113,G-3,Turbine,"One natural gas/No. 2 fuel oil-fired simple-cycle internal combustion turbine (1,628 million Btu per",1630,E6BTU/HR,OP,,,,A,R,NOX,Nitrogen Oxides,16.359,TON,2023EPA_EGU
NC,37,,37159,Rowan,8508011,NCDAQ,3715900163,Southern Power Company,Plant Rowan County,221112,Electricity Generation via Combustion,35.7306,-80.6017,OP,2008,74216113,G-5,Turbine,"One natural gas-fired combined-cycle internal combustion turbine (1,628 million Btu per hour heat in",1630,E6BTU/HR,OP,,,,A,R,NOX,Nitrogen Oxides,73.406,TON,2023EPA_EGU
CT,9,,9120,Greater Bridgeport,754511,CTBAM,T015P0862C06859,BRIDGEPORT ENERGY LLC,BRIDGEPORT ENERGY LLC,221112,Electricity Generation via Combustion,41.16876,-73.18416,OP,,46285013,P0191,Turbine,190 MW SIEMENS TURBINE,1930,E6BTU/HR,OP,,,,A,R,NOX,Nitrogen Oxides,90.244,TON,2023EPA_EGU
CT,9,,9170,South Central Connecticut,2708911,CTBAM,T105P0251C07780,MILFORD POWER CO LLC,"MILFORD POWER CO, LLC",221112,Electricity Generation via Combustion,41.22355,-73.09956,OP,,40857713,P0069,Turbine,"ABB GT-24, UNIT #2 CC TURBINE",2140,E6BTU/HR,OP,,,,A,R,NOX,Nitrogen Oxides,45.875,TON,2023EPA_EGU
IL,17,,17189,Washington,10857911,ILEPA,189808AAB,,Prairie State Generating Station,221112,Electricity Generation via Combustion,38.279267,-89.666973,OP,2011,96564813,4,Boiler,Boiler #1,7450,E6BTU/HR,OP,2011,,,A,R,NOX,Nitrogen Oxides,1906.384,TON,2023EPA_EGU
ND,38,,38105,Williams,18983011,NDDEQ,1532,Basin Electric Power Cooperative,Basin Electric Power Cooperative - Pioneer Generation Station,221112,Electricity Generation via Combustion,48.2325,-103.952778,OP,2017,137154813,Unit 3,Turbine,GE Model LM6000 PC SPRINT,451,E6BTU/HR,OP,,,,A,R,NOX,Nitrogen Oxides,5.313,TON,2023EPA_EGU
NY,36,,36081,Queens,8309011,NYDEC,2630400024,TC RAVENSWOOD LLC,RAVENSWOOD GENERATING STATION,221112,Electricity Generation via Combustion,40.75967,-73.946046,OP,2018,64122913,UCC001,Turbine,,2160,E6BTU/HR,OP,,,,A,R,NOX,Nitrogen Oxides,47.877,TON,2023EPA_EGU
OH,39,,39081,Jefferson,8115711,OHEPA,641050002,Ohio Power Company,Cardinal Power Plant (Cardinal Operating Company) (0641050002),221112,Electricity Generation via Combustion,40.2522,-80.6486,OP,1994,6045913,B002,Boiler,"Unit 2 - Unit 1 - Babcock and Wilcox pulverized coal-fired, dry bottom, wall-fired boiler with a...",5280,E6BTU/HR,OP,,,,A,R,NOX,Nitrogen Oxides,1297.806,TON,2023EPA_EGU
OH,39,,39081,Jefferson,8115711,OHEPA,641050002,Ohio Power Company,Cardinal Power Plant (Cardinal Operating Company) (0641050002),221112,Electricity Generation via Combustion,40.2522,-80.6486,OP,1994,6046113,B009,Boiler,"Babcock and Wilcox pulverized coal-fired, dry bottom, wall-fired boiler with a nominal capacity ...",5980,E6BTU/HR,OP,,,,A,R,NOX,Nitrogen Oxides,1333.907,TON,2023EPA_EGU
VA,51,,51081,Greensville,18854911,VADEQ,52525,Dominion Energy,Dominion Energy - Greensville Power Station,221112,Electricity Generation via Combustion,36.72094,-77.653509,OP,2018,134704113,2,Combined Cycle (Boiler/Gas Turbine),CT-2 B,3730,E6BTU/HR,OP,,,,A,R,NOX,Nitrogen Oxides,55.115,TON,2023EPA_EGU
OK,40,,40083,Logan,8350311,OKDEQ,4001,EVERGY INC,SPRING CREEK ENERGY CENTER,221112,Electricity Generation via Combustion,35.7416,-97.65603,OP,2003,910413,17144,Turbine,Turbine NO 1 GE 80 MW  CTG-1,891,E6BTU/HR,OP,2007,,,A,R,NOX,Nitrogen Oxides,9.25,TON,2023EPA_EGU
OK,40,,40083,Logan,8350311,OKDEQ,4001,EVERGY INC,SPRING CREEK ENERGY CENTER,221112,Electricity Generation via Combustion,35.7416,-97.65603,OP,2003,910713,17146,Turbine,Turbine NO 2 GE 80MW  CTG-2,891,E6BTU/HR,OP,2002,,,A,R,NOX,Nitrogen Oxides,7.325,TON,2023EPA_EGU
VA,51,,51083,Halifax,6160611,VADEQ,30867,Dominion/ODEC  - Clover Power Station,Dominion/ODEC - Clover Power Station,221112,Electricity Generation via Combustion,36.8691,-78.7048,OP,2008,15869213,2,Boiler,Combustion Engineering pulverized (bituminous) coal-fired boiler ES-2,4080,E6BTU/HR,OP,,,,A,R,NOX,Nitrogen Oxides,208.068,TON,2023EPA_EGU
CA,6,,6085,Santa Clara,13834111,CARB,43130312183,METCALF ENERGY CENTER,METCALF ENERGY CENTER,221112,Electricity Generation via Combustion,37.22045,-121.746001,OP,,84510013,3,Combined Cycle (Boiler/Gas Turbine),"TURBINE, ELECTRICAL",2120,E6BTU/HR,OP,,,,A,R,NOX,Nitrogen Oxides,33.667,TON,2023EPA_EGU
CA,6,,6085,Santa Clara,13834111,CARB,43130312183,METCALF ENERGY CENTER,METCALF ENERGY CENTER,221112,Electricity Generation via Combustion,37.22045,-121.746001,OP,,84510213,1,Combined Cycle (Boiler/Gas Turbine),"TURBINE, ELECTRICAL",2120,E6BTU/HR,OP,,,,A,R,NOX,Nitrogen Oxides,30.847,TON,2023EPA_EGU
CA,6,,6085,Santa Clara,16024011,CARB,43130314991,DONALD VON RAESFELD POWER PLANT,Donald Von Raesfeld Power Plant,221112,Electricity Generation via Combustion,37.376258,-121.950957,OP,,100453613,1,Combined Cycle (Boiler/Gas Turbine),COMBUSTION GAS TURBINE #1,611,E6BTU/HR,OP,,,,A,R,NOX,Nitrogen Oxides,11.49,TON,2023EPA_EGU
CA,6,,6085,Santa Clara,9991311,CARB,43130313289,LOS ESTEROS CRITICAL ENERGY FACILITY,LOS ESTEROS CRITICAL ENERGY FACILITY,221112,Electricity Generation via Combustion,37.42501,-121.93214,OP,2008,54562613,2,Combined Cycle (Boiler/Gas Turbine),COMBUSTION GAS TURBINE #2,473,E6BTU/HR,OP,,,,A,R,NOX,Nitrogen Oxides,1.419,TON,2023EPA_EGU
FL,12,,12085,Martin,751511,FLDEP,850001,Florida Power & Light Company,FLORIDA POWER & LIGHT (PMR),221112,Electricity Generation via Combustion,27.05558,-80.56459,OP,2008,67227613,17,Turbine,Unit 8C -  gas turbine with gas-fired HRSG,1980,E6BTU/HR,OP,2008,,,A,R,NOX,Nitrogen Oxides,33.538,TON,2023EPA_EGU
TN,47,,47085,Humphreys,5720911,TNDEC,43-0011,TVA JOHNSONVILLE FOSSIL PLANT,TVA - Johnsonville Combustion Turbine Plant,221112,Electricity Generation via Combustion,36.0321,-87.9835,OP,2018,23016213,12,Turbine,COMBUSTION TURBINES #1-16,14800,E6BTU/HR,OP,,,,A,R,NOX,Nitrogen Oxides,50.66,TON,2023EPA_EGU
NY,36,,36087,Rockland,8175411,NYDEC,3392200003,MIRANT BOWLINE LLC,BOWLINE POINT GENERATING STATION,221112,Electricity Generation via Combustion,41.2055,-73.96598,OP,2008,4454713,100001,Boiler,EMISSION UNIT,7000,E6BTU/HR,OP,,,,A,R,NOX,Nitrogen Oxides,413.806,TON,2023EPA_EGU
OH,39,,39087,Lawrence,9279711,OHEPA,744000150,,"Hanging Rock Power Company, LLC (0744000150)",221112,Electricity Generation via Combustion,38.5731,-82.7842,OP,2003,55248513,P001,Turbine,"GE 7FA natural gas fired dry low NOx (DLN) combustion turbine No. 1, nominally rated at 2,045 MM...",2040,E6BTU/HR,OP,,,,A,R,NOX,Nitrogen Oxides,69.135,TON,2023EPA_EGU
OH,39,,39087,Lawrence,9279711,OHEPA,744000150,,"Hanging Rock Power Company, LLC (0744000150)",221112,Electricity Generation via Combustion,38.5731,-82.7842,OP,2003,55250113,P003,Turbine,"GE 7FA natural gas fired dry low NOx (DLN) combustion turbine No. 3, nominally rated at 2,045 MM...",2040,E6BTU/HR,OP,,,,A,R,NOX,Nitrogen Oxides,69.171,TON,2023EPA_EGU
OH,39,,39087,Lawrence,9279711,OHEPA,744000150,,"Hanging Rock Power Company, LLC (0744000150)",221112,Electricity Generation via Combustion,38.5731,-82.7842,OP,2003,55250213,P004,Turbine,"GE 7FA natural gas fired dry low NOx (DLN) combustion turbine No. 4, nominally rated at 2,045 MM...",2040,E6BTU/HR,OP,,,,A,R,NOX,Nitrogen Oxides,71.848,TON,2023EPA_EGU
LA,22,,22089,St. Charles,5609311,LADEQ08,83898,Entergy Louisiana LLC,Entergy Louisiana LLC - Waterford 1 & 2 Electric Generating Plant,221112,Electricity Generation via Combustion,29.99919,-90.476749,OP,2023,80643313,EQT010,Boiler,U2 Stack A & Stack B Firing Natural Gas,4440,E6BTU/HR,OP,,,,A,R,NOX,Nitrogen Oxides,227.928,TON,2023EPA_EGU
LA,22,,22089,St. Charles,5609011,LADEQ08,1137,Occidental Chemical Corp,Occidental Chemical Corp - Taft Plant,325180,Chemical Plant,29.9875,-90.4565,OP,2023,82246713,SEQT03,Turbine,1a-99 - Gas Turbine No. 1,2030,E6BTU/HR,OP,,,,A,R,NOX,Nitrogen Oxides,226.152,TON,2023EPA_EGU
NY,36,,36091,Saratoga,7819511,NYDEC,5412600028,INDECK-ENERGY SERVICES INC,INDECK-CORINTH ENERGY CENTER,221112,Electricity Generation via Combustion,43.249249,-73.809586,OP,2008,3429313,U00001,Turbine,EMISSION UNIT,76,MW,OP,2008,,,A,R,NOX,Nitrogen Oxides,50.076,TON,2023EPA_EGU
IL,17,,17093,Kendall,9692211,ILEPA,093808AAD,,Kendall Power Co LLC,221112,Electricity Generation via Combustion,41.480297,-88.25715,OP,2009,59763513,7,Turbine,#4 Combined cycle (CT and HRSG) unit,2516,E6BTU/HR,OP,,,,A,R,NOX,Nitrogen Oxides,75.877,TON,2023EPA_EGU
CA,6,,6095,Solano,1562111,CARB,48130314415,GILROY ENERGY CENTER LLC FOR LAMBIE ENERGY CENTER,Lambie Energy Center,221112,Electricity Generation via Combustion,38.2216,-121.8683,OP,2008,44762613,1,Unclassified,GE LM6000 PC ESPRINT NATURAL GAS-FIRED T,45,MW,OP,,,,A,R,NOX,Nitrogen Oxides,1.553,TON,2023EPA_EGU
MO,29,,29095,Jackson,7663711,MODNR,22,Kansas City Power & Light Company,EVERGY INC HAWTHORN GENERATING STATION,221112,Electricity Generation via Combustion,39.13002,-94.47746,OP,2009,12449713,24676,Boiler,EP06-UTILITY BOILER - UNIT #5,6600,E6BTU/HR,OP,,,,A,R,NOX,Nitrogen Oxides,760.031,TON,2023EPA_EGU
MO,29,,29095,Jackson,7663711,MODNR,22,Kansas City Power & Light Company,EVERGY INC HAWTHORN GENERATING STATION,221112,Electricity Generation via Combustion,39.13002,-94.47746,OP,2009,12448813,24674,Turbine,EP801-UNIT #8-GE SIMPLE CYCLE COMBUSTION TURBI,925,E6BTU/HR,OP,,,,A,R,NOX,Nitrogen Oxides,15.248,TON,2023EPA_EGU
PA,42,,42095,Northampton,3883511,PADEP,420950254,CALPINE BETHLEHEM LLC,CALPINE BETHLEHEM LLC/BETHLEHEM,221112,Electricity Generation via Combustion,40.6178,-75.3141,OP,2008,37139013,35,Combined Cycle (Boiler/Gas Turbine),UNIT 5 COMBUSTION TURBINE,1570,E6BTU/HR,OP,,,,A,R,NOX,Nitrogen Oxides,17.165,TON,2023EPA_EGU
AL,1,,1097,Mobile,1056111,ADEM,1001,Alabama Power Company,Alabama Power Company,221112,Electricity Generation via Combustion,31.0043,-88.0141,OP,2008,47671413,X004,Boiler,Unit Number Four Power Boiler,3770,E6BTU/HR,OP,,,,A,R,NOX,Nitrogen Oxides,386.123,TON,2023EPA_EGU
AL,1,,1097,Mobile,1056111,ADEM,1001,Alabama Power Company,Alabama Power Company,221112,Electricity Generation via Combustion,31.0043,-88.0141,OP,2008,47672013,X006B,Combined Cycle (Boiler/Gas Turbine),CT/DB 6B,1200,E6BTU/HR,OP,,,,A,R,NOX,Nitrogen Oxides,48.013,TON,2023EPA_EGU
FL,12,,12097,Osceola,558411,FLDEP,970043,Kissimmee Utility Authority,FMPA & KISSIMMEE UTILITY AUTHORITY,221112,Electricity Generation via Combustion,28.2764,-81.533,OP,2008,89409413,9,Turbine,300 MW Combined-Cycle CT with a HRSG - Unit 4,1900,E6BTU/HR,OP,2011,,,A,R,NOX,Nitrogen Oxides,46.346,TON,2023EPA_EGU
SC,45,,45075,Orangeburg,7870811,SCDHEC,1860-0044,South Carolina Electric & Gas Company,COPE STATION,221112,Electricity Generation via Combustion,33.36512,-81.031158,OP,2014,2803113,1,Boiler,BLR 1 4000MMBTU COAL,4000,E6BTU/HR,OP,2014,,,A,R,NOX,Nitrogen Oxides,689.34,TON,2023EPA_EGU
